dobih_number,name,height_m,height_ft,xcoord,ycoord,1891,1921,1933,1953,1969,1974,1981,1984,1990,1997,2021,latitude,longitude,nearest_center,min_distance_km,nearest_center_lat,nearest_center_lon
1,Ben Chonzie,931.0,3054.0,277324.0,730857.0,Munro,Munro,Munro,Munro,Munro,Munro,Munro,Munro,Munro,Munro,Munro,56.4538565242024,-3.9920620067733528,St Fillans,10.363014583580979,56.3926966,-4.1192135
17,Ben Vorlich,985.3,3233.0,262912.0,718916.0,Munro,Munro,Munro,Munro,Munro,Munro,Munro,Munro,Munro,Munro,Munro,56.34268676023304,-4.219463827205399,Lochearnhead,6.332440923148525,56.3867431,-4.284613
18,Stuc a' Chroin,973.0,3192.0,261746.0,717465.0,Munro,Munro,Munro,Munro,Munro,Munro,Munro,Munro,Munro,Munro,Munro,56.329321503425696,-4.237548857497816,Strathyre,5.662300137808474,56.3241178,-4.3289099
32,Ben Lomond,973.7,3195.0,236707.0,702863.0,Munro,Munro,Munro,Munro,Munro,Munro,Munro,Munro,Munro,Munro,Munro,56.19030154380975,-4.633031603227494,Tarbet,5.054266530773324,56.2037127,-4.7110966
26,Ben More,1174.0,3852.0,243276.0,724417.0,Munro,Munro,Munro,Munro,Munro,Munro,Munro,Munro,Munro,Munro,Munro,56.385966478441,-4.540097124843154,Crianlarich,4.72387245749093,56.3926292,-4.6158939
27,Stob Binnein,1165.0,3822.0,243481.0,722712.0,Munro,Munro,Munro,Munro,Munro,Munro,Munro,Munro,Munro,Munro,Munro,56.37073150306797,-4.5357629552690755,Crianlarich,5.501366147677836,56.3926292,-4.6158939
28,Stob Binnein - Stob Coire an Lochain,1068.0,3504.0,243842.0,722052.0,Munro Top,Munro Top,Munro Top,Munro Top,Munro Top,Munro Top,Munro Top,Munro Top,Munro Top,Munro Top,Munro Top,56.364927106768285,-4.529531858104978,Crianlarich,6.144996211221122,56.3926292,-4.6158939
39,Stob Binnein - Creag a' Bhragit,923.0,3028.0,244847.0,722468.0,Munro Top,Munro Top,Munro Top,Munro Top,Munro Top,Munro Top,Munro Top,Munro Top,Munro Top,Munro Top,Munro Top,56.368991657533805,-4.513526227305925,Crianlarich,6.828421920846978,56.3926292,-4.6158939
33,Stob Binnein - Meall na Dige,966.0,3169.0,245051.0,722592.0,Munro Top,Munro Top,Munro Top,Munro Top,Munro Top,Munro Top,Munro Top,Munro Top,Munro Top,Munro Top,Munro Top,56.37017150666956,-4.5103002573194875,Crianlarich,6.96393693071009,56.3926292,-4.6158939
30,Cruach Ardrain,1045.9,3431.0,240927.0,721215.0,Munro,Munro,Munro,Munro,Munro,Munro,Munro,Munro,Munro,Munro,Munro,56.35644360777096,-4.576160402387191,Crianlarich,4.709107134354519,56.3926292,-4.6158939
29,Cruach Ardrain SW Top,1044.9,3428.0,240815.0,721112.0,Munro Top,Munro,Munro,Munro,Munro,Munro,Munro,Munro,Munro,Munro,Munro,56.35548150829951,-4.57790861012615,Crianlarich,4.746896621169407,56.3926292,-4.6158939
40,Cruach Ardrain - Stob Garbh SE Top,923.5,3030.0,241285.0,721716.0,Munro Top,Munro Top,Munro Top,Munro Top,Munro Top,Munro Top,Munro Top,Munro Top,Munro Top,Munro Top,Munro Top,56.36106036305323,-4.570675603959221,Crianlarich,4.480375881215889,56.3926292,-4.6158939
34,Cruach Ardrain - Stob Garbh,957.7,3142.0,241112.0,722142.0,Munro Top,Munro Top,Munro Top,Munro Top,Munro Top,Munro Top,Munro Top,Munro Top,Munro Top,Munro Top,Munro Top,56.36482567070895,-4.573730513788729,Crianlarich,4.036953412939769,56.3926292,-4.6158939
31,An Caisteal,995.9,3267.0,237873.0,719343.0,Munro,Munro,Munro,Munro,Munro,Munro,Munro,Munro,Munro,Munro,Munro,56.338606296280155,-4.624376002914043,Crianlarich,6.029746082427456,56.3926292,-4.6158939
35,Beinn Tulaichean,945.8,3103.0,241660.0,719604.0,Munro,Munro,Munro,Munro,Munro,Munro,Munro,Munro,Munro,Munro,Munro,56.342230492056856,-4.563339702372663,Crianlarich,6.471602752502384,56.3926292,-4.6158939
2925,Beinn a' Chroin,941.4,3089.0,238755.0,718573.0,Unclassified,Unclassified,Unclassified,Unclassified,Unclassified,Unclassified,Unclassified,Unclassified,Unclassified,Unclassified,Munro,56.33199685618902,-4.6096523311124535,Crianlarich,6.752961429327396,56.3926292,-4.6158939
36,Beinn a' Chroin East Top,940.1,3084.0,239396.0,718594.0,Munro,Munro,Munro,Munro,Munro,Munro,Munro,Munro,Munro,Munro,Munro Top,56.332403146123475,-4.599309365007972,Crianlarich,6.774294239762977,56.3926292,-4.6158939
37,Beinn a' Chroin West Top,937.9,3077.0,238590.0,718551.0,Munro Top,Munro Top,Munro Top,Munro Top,Munro Top,Munro Top,Munro Top,Munro Top,Munro Top,Munro Top,Munro Top,56.331743201452646,-4.612304496338399,Crianlarich,6.773823195677601,56.3926292,-4.6158939
38,Beinn Chabhair,932.2,3058.0,236760.0,717957.0,Munro,Munro,Munro,Munro,Munro,Munro,Munro,Munro,Munro,Munro,Munro,56.32578502841268,-4.641499844511923,Crianlarich,7.598255897175999,56.3926292,-4.6158939
65,Ben Lui [Beinn Laoigh],1131.4,3712.0,226635.0,726296.0,Munro,Munro,Munro,Munro,Munro,Munro,Munro,Munro,Munro,Munro,Munro,56.39701684686812,-4.810529918874402,Tyndrum,7.460312328876013,56.4359066,-4.711694
66,Ben Lui NW Top,1127.0,3698.0,226544.0,726413.0,Unclassified,Unclassified,Unclassified,Unclassified,Unclassified,Munro,Munro Top,Munro Top,Munro Top,Munro Top,Munro Top,56.3980333190026,-4.812079790308232,Tyndrum,7.473862202807346,56.4359066,-4.711694
67,Ben Oss,1029.0,3376.0,228761.0,725348.0,Munro,Munro,Munro,Munro,Munro,Munro,Munro,Munro,Munro,Munro,Munro,56.38928526847142,-4.775510110788019,Tyndrum,6.502662597618779,56.4359066,-4.711694
69,Beinn Dubhchraig,978.0,3209.0,230763.0,725493.0,Munro,Munro,Munro,Munro,Munro,Munro,Munro,Munro,Munro,Munro,Munro,56.39130764874173,-4.7432154255564205,Tyndrum,5.324752428835752,56.4359066,-4.711694
75,Beinn a' Chleibh,916.3,3006.0,225054.0,725606.0,Munro,Munro,Munro,Munro,Munro,Munro,Munro,Munro,Munro,Munro,Munro,56.39024264621707,-4.835650055108129,Dalmally,8.670735680109704,56.4027002,-4.9747363
71,Ben Vorlich,943.0,3094.0,229509.0,712474.0,Munro,Munro,Munro,Munro,Munro,Munro,Munro,Munro,Munro,Munro,Munro,56.274027431809756,-4.755066889430746,Succoth,7.151446866654697,56.2098574,-4.7473135
73,Ben Vorlich North Top,931.0,3054.0,229476.0,713008.0,Munro Top,Munro Top,Munro Top,Munro Top,Munro Top,Munro Top,Munro Top,Munro Top,Munro Top,Munro Top,Munro Top,56.278807625789206,-4.755944025034296,Succoth,7.6854367733547315,56.2098574,-4.7473135
68,Beinn Ime,1012.2,3321.0,225497.0,708488.0,Munro,Munro,Munro,Munro,Munro,Munro,Munro,Munro,Munro,Munro,Munro,56.23680134953794,-4.817143611804479,Succoth,5.254671299412837,56.2098574,-4.7473135
76,Ben Vane,915.76,3004.0,227753.0,709844.0,Munro,Munro,Munro,Munro,Munro,Munro,Munro,Munro,Munro,Munro,Munro,56.2497926304672,-4.7816751398968185,Succoth,4.922365168038572,56.2098574,-4.7473135
74,Beinn Narnain,927.0,3041.0,227168.0,706655.0,Munro,Munro,Munro,Munro,Munro,Munro,Munro,Munro,Munro,Munro,Munro,56.22096312668496,-4.7890225656878265,Succoth,2.859383246723364,56.2098574,-4.7473135
1419,Beinn an Lochain,901.7,2958.0,221803.0,707893.0,Munro,Munro,Munro,Munro,Munro,Munro,Munro,Munro,Munro,Munro,Munro,56.23009193880726,-4.876260915904622,Cairndow,4.71084855431697,56.2544873,-4.9385932
70,Beinn Bhuidhe,948.5,3112.0,220368.0,718717.0,Munro,Munro,Munro,Munro,Munro,Munro,Munro,Munro,Munro,Munro,Munro,56.32667278508614,-4.906741207276631,Cairndow,8.263832607939054,56.2544873,-4.9385932
103,Schiehallion,1083.0,3553.0,271384.0,754768.0,Munro,Munro,Munro,Munro,Munro,Munro,Munro,Munro,Munro,Munro,Munro,56.66694238337196,-4.1002343174216795,Kinloch Rannoch,6.46254483276812,56.7006271,-4.1864633
107,Carn Mairg,1042.0,3419.0,268491.0,751260.0,Munro,Munro,Munro,Munro,Munro,Munro,Munro,Munro,Munro,Munro,Munro,56.63464479107839,-4.145612008497389,Fortingall,6.9114841215975,56.5983027,-4.0539703
110,Carn Mairg - Meall Liath,1012.0,3320.0,269297.0,751220.0,Munro Top,Munro Top,Munro Top,Munro Top,Munro Top,Munro Top,Munro Top,Munro Top,Munro Top,Munro Top,Munro Top,56.634511437991975,-4.13246179329221,Fortingall,6.266884012529357,56.5983027,-4.0539703
111,Carn Mairg - Meall a' Bharr,1004.0,3294.0,266826.0,751562.0,Munro Top,Munro Top,Munro Top,Munro Top,Munro Top,Munro Top,Munro Top,Munro Top,Munro Top,Munro Top,Munro Top,56.63688520750328,-4.172890593487098,Kinloch Rannoch,7.136123812651183,56.7006271,-4.1864633
109,Carn Gorm,1029.0,3376.0,263516.0,750071.0,Munro,Munro,Munro,Munro,Munro,Munro,Munro,Munro,Munro,Munro,Munro,56.6225471103232,-4.2260229942329675,Kinloch Rannoch,9.01239506621279,56.7006271,-4.1864633
119,Meall Garbh East Top,963.7,3162.0,265027.0,751527.0,Unclassified,Unclassified,Unclassified,Unclassified,Unclassified,Munro,Munro,Munro,Munro,Munro,Munro,56.636055709338116,-4.202178966721078,Kinloch Rannoch,7.243934776569911,56.7006271,-4.1864633
118,Meall Garbh,968.0,3176.0,264707.0,751686.0,Munro,Munro,Munro,Munro,Munro,Munro,Munro,Munro,Munro,Munro,Munro,56.63739068327499,-4.207475191950963,Kinloch Rannoch,7.14780413736001,56.7006271,-4.1864633
127,Meall Garbh - Meall Luaidhe,921.1,3022.0,265644.0,750993.0,Munro Top,Munro Top,Munro Top,Munro Top,Munro Top,Munro Top,Munro Top,Munro Top,Munro Top,Munro Top,Munro Top,56.6314394054972,-4.191849795528494,Kinloch Rannoch,7.700357879960249,56.7006271,-4.1864633
125,Carn Gorm - An Sgorr,924.0,3031.0,264073.0,750956.0,Munro Top,Munro Top,Munro Top,Munro Top,Munro Top,Munro Top,Munro Top,Munro Top,Munro Top,Munro Top,Munro Top,56.63065377615236,-4.21741879026382,Kinloch Rannoch,8.007295214440532,56.7006271,-4.1864633
115,Meall na Aighean,981.0,3219.0,269477.0,749669.0,Munro,Munro,Munro,Munro,Munro,Munro,Munro,Munro,Munro,Munro,Munro,56.620637478114496,-4.128745143709892,Fortingall,5.206383508979232,56.5983027,-4.0539703
120,Stuc an Lochain [Stuchd an Lochain],960.0,3150.0,248305.0,744840.0,Munro,Munro,Munro,Munro,Munro,Munro,Munro,Munro,Munro,Munro,Munro,56.57091739234496,-4.470615556641893,Killin,14.83539259534307,56.4667022,-4.3196105
124,Stuc an Lochain - Sron Chona Choirein,927.0,3041.0,249337.0,744557.0,Munro Top,Munro Top,Munro Top,Munro Top,Munro Top,Munro Top,Munro Top,Munro Top,Munro Top,Munro Top,Munro Top,56.568709744433285,-4.453671500448343,Killin,14.010301091474009,56.4667022,-4.3196105
123,Meall Buidhe,932.1,3058.0,249838.0,749946.0,Munro,Munro,Munro,Munro,Munro,Munro,Munro,Munro,Munro,Munro,Munro,56.61723987563279,-4.448654120941669,Kinloch Rannoch,18.513153581516974,56.7006271,-4.1864633
128,Meall Buidhe SE Top,917.0,3009.0,250065.0,748941.0,Munro Top,Munro Top,Munro Top,Munro Top,Munro Top,Munro Top,Munro Top,Munro Top,Munro Top,Munro Top,Munro Top,56.60829210441865,-4.444375522309099,Killin,17.504052399444564,56.4667022,-4.3196105
105,Beinn Dorain,1076.0,3530.0,232554.0,737855.0,Munro,Munro,Munro,Munro,Munro,Munro,Munro,Munro,Munro,Munro,Munro,56.50288111845374,-4.7221644613186635,Bridge of Orchy,3.200147178329821,56.5176858,-4.7668913
112,Beinn an Dothaidh,1004.0,3294.0,233178.0,740868.0,Munro,Munro,Munro,Munro,Munro,Munro,Munro,Munro,Munro,Munro,Munro,56.53014094506711,-4.713972140933516,Bridge of Orchy,3.5288661365755725,56.5176858,-4.7668913
108,Beinn Achaladair,1038.6,3407.0,234468.0,743242.0,Munro,Munro,Munro,Munro,Munro,Munro,Munro,Munro,Munro,Munro,Munro,56.55190113927786,-4.694538092685109,Bridge of Orchy,5.844370419667354,56.5176858,-4.7668913
113,Beinn Achaladair South Top,1003.6,3293.0,234226.0,742052.0,Munro Top,Munro Top,Munro Top,Munro Top,Munro Top,Munro Top,Munro Top,Munro Top,Munro Top,Munro Top,Munro Top,56.54113683420921,-4.697709909851432,Bridge of Orchy,4.979856874074109,56.5176858,-4.7668913
104,Beinn a' Chreachain,1080.6,3545.0,237387.0,744075.0,Munro,Munro,Munro,Munro,Munro,Munro,Munro,Munro,Munro,Munro,Munro,56.56039641000449,-4.6476309675835115,Bridge of Orchy,8.718773433883472,56.5176858,-4.7668913
116,Beinn a' Chreachain - Meall Buidhe,977.2,3206.0,235981.0,743843.0,Munro Top,Munro Top,Munro Top,Munro Top,Munro Top,Munro Top,Munro Top,Munro Top,Munro Top,Munro Top,Munro Top,56.55782537528378,-4.670334530823389,Bridge of Orchy,7.4140431207489055,56.5176858,-4.7668913
121,Beinn a' Chreachain North Top,959.9,3149.0,237807.0,744915.0,Munro Top,Munro Top,Munro Top,Munro Top,Munro Top,Munro Top,Munro Top,Munro Top,Munro Top,Munro Top,Munro Top,56.56808009708735,-4.641330613452073,Bridge of Orchy,9.520930883436995,56.5176858,-4.7668913
122,Beinn Mhanach,953.0,3127.0,237371.0,741140.0,Munro,Munro,Munro,Munro,Munro,Munro,Munro,Munro,Munro,Munro,Munro,56.53405134374227,-4.646051529545795,Bridge of Orchy,7.631334897017827,56.5176858,-4.7668913
126,Beinn Mhanach - Beinn a' Chuirn,923.0,3028.0,236000.0,740923.0,Munro,Munro Top,Munro Top,Munro Top,Munro Top,Munro Top,Munro Top,Munro Top,Munro Top,Munro Top,Munro Top,56.53162756076657,-4.668180576460718,Bridge of Orchy,6.249522963690448,56.5176858,-4.7668913
141,Ben Lawers,1214.0,3983.0,263553.0,741424.0,Munro,Munro,Munro,Munro,Munro,Munro,Munro,Munro,Munro,Munro,Munro,56.544933280206635,-4.2208619651423165,Ardeonaig,6.479229681554303,56.4954532,-4.1650767
142,An Stuc,1117.1,3665.0,263890.0,743103.0,Munro Top,Munro Top,Munro Top,Munro Top,Munro Top,Munro Top,Munro Top,Munro Top,Munro Top,Munro,Munro,56.56010368540211,-4.2162666152278145,Ardeonaig,7.8443916372773845,56.4954532,-4.1650767
147,Ben Lawers - Creag an Fhithich,1047.0,3435.0,263573.0,742242.0,Munro Top,Munro Top,Munro Top,Munro Top,Munro Top,Munro Top,Munro Top,Munro Top,Munro Top,Munro Top,Munro Top,56.55228237588084,-4.220967145502268,Ardeonaig,7.189039071571974,56.4954532,-4.1650767
143,Meall Garbh,1123.1,3685.0,264437.0,743757.0,Munro,Munro,Munro,Munro,Munro,Munro,Munro,Munro,Munro,Munro,Munro,56.566133043164065,-4.207715899079792,Fearnan,7.968418131805137,56.5752047,-4.0786831
154,Meall Greigh,1001.0,3284.0,267400.0,743808.0,Munro,Munro,Munro,Munro,Munro,Munro,Munro,Munro,Munro,Munro,Munro,56.56743741291093,-4.1595622613896985,Fearnan,5.029142073048416,56.5752047,-4.0786831
144,Beinn Ghlas,1103.0,3619.0,262529.0,740463.0,Munro,Munro,Munro,Munro,Munro,Munro,Munro,Munro,Munro,Munro,Munro,56.53600777152194,-4.23699361362846,Ardeonaig,6.308730084947004,56.4954532,-4.1650767
146,Meall Corranaich,1069.0,3507.0,261534.0,741047.0,Munro,Munro,Munro,Munro,Munro,Munro,Munro,Munro,Munro,Munro,Munro,56.54095814241964,-4.253470522247558,Ardeonaig,7.416513877303525,56.4954532,-4.1650767
162,Meall Corranaich - Sron Dha Mhurchaidh,935.0,3068.0,261105.0,740341.0,Munro Top,Munro Top,Munro Top,Munro Top,Munro Top,Munro Top,Munro Top,Munro Top,Munro Top,Munro Top,Munro Top,56.534493813540095,-4.260063456916965,Ardeonaig,7.266533009066312,56.4954532,-4.1650767
163,Meall a' Choire Leith,925.6,3037.0,261249.0,743882.0,Munro,Munro,Munro,Munro,Munro,Munro,Munro,Munro,Munro,Munro,Munro,56.56632351360575,-4.259618210463545,Ardeonaig,9.783268041408718,56.4954532,-4.1650767
149,Meall nan Tarmachan,1043.6,3424.0,258518.0,738998.0,Munro,Munro,Munro,Munro,Munro,Munro,Munro,Munro,Munro,Munro,Munro,56.52166639449894,-4.301359045465869,Killin,6.2135703334734425,56.4667022,-4.3196105
151,Meall nan Tarmachan - Meall Garbh,1026.7,3368.0,257837.0,738339.0,Munro Top,Munro Top,Munro Top,Munro Top,Munro Top,Munro Top,Munro Top,Munro Top,Munro Top,Munro Top,Munro Top,56.5155453862519,-4.312057926188765,Killin,5.450867552629572,56.4667022,-4.3196105
156,Meall nan Tarmachan - Beinn nan Eachan,1000.1,3281.0,257022.0,738371.0,Munro Top,Munro Top,Munro Top,Munro Top,Munro Top,Munro Top,Munro Top,Munro Top,Munro Top,Munro Top,Munro Top,56.51558554482592,-4.325308723342798,Killin,5.446823548840972,56.4667022,-4.3196105
155,Meall nan Tarmachan - Beinn nan Eachan East Top,951.4,3121.0,257407.0,738390.0,Unclassified,Munro Top,Munro Top,Munro Top,Munro Top,Munro Top,Munro Top,Munro Top,Munro Top,Munro Top,Munro Top,56.5158729997821,-4.31906785825776,Killin,5.4676449473274245,56.4667022,-4.3196105
164,Meall nan Tarmachan SE Top,921.6,3024.0,258926.0,738511.0,Unclassified,Unclassified,Unclassified,Unclassified,Unclassified,Unclassified,Unclassified,Unclassified,Unclassified,Munro Top,Munro Top,56.517417343267276,-4.294468791348048,Killin,5.846640876962558,56.4667022,-4.3196105
167,Meall nan Tarmachan - Creag na Caillich,914.3,3000.0,256285.0,737700.0,Unclassified,Unclassified,Unclassified,Unclassified,Unclassified,Unclassified,Munro Top,Munro Top,Munro Top,Munro Top,Munro Top,56.50933768992166,-4.336904489016987,Killin,4.858280846137922,56.4667022,-4.3196105
150,Meall Ghaordaidh,1039.8,3411.0,251442.0,739704.0,Munro,Munro,Munro,Munro,Munro,Munro,Munro,Munro,Munro,Munro,Munro,56.52582086503157,-4.416668339798487,Killin,8.871449156340752,56.4667022,-4.3196105
145,Beinn Sheasgarnaich [Beinn Heasgarnich],1077.4,3535.0,241380.0,738339.0,Munro,Munro,Munro,Munro,Munro,Munro,Munro,Munro,Munro,Munro,Munro,56.51028310090204,-4.579228912569359,Bridge of Orchy,11.542464496959335,56.5176858,-4.7668913
153,Beinn Sheasgarnaich - Stob an Fhir-Bhogha,1029.0,3376.0,241139.0,737238.0,Munro Top,Munro Top,Munro Top,Munro Top,Munro Top,Munro Top,Munro Top,Munro Top,Munro Top,Munro Top,Munro Top,56.50032051383146,-4.582468487429626,Tyndrum,10.691416649207241,56.4359066,-4.711694
148,Creag Mhor,1046.8,3434.0,239150.0,736111.0,Munro,Munro,Munro,Munro,Munro,Munro,Munro,Munro,Munro,Munro,Munro,56.48953049551562,-4.614047829579727,Tyndrum,8.45801941940175,56.4359066,-4.711694
159,Creag Mhor - Stob nan Clach,956.5,3138.0,238709.0,735184.0,Munro Top,Munro Top,Munro Top,Munro Top,Munro Top,Munro Top,Munro Top,Munro Top,Munro Top,Munro Top,Munro Top,56.48106019419751,-4.620627946396088,Tyndrum,7.517566669630779,56.4359066,-4.711694
152,Beinn Challuim [Ben Challum],1025.0,3363.0,238685.0,732235.0,Munro,Munro,Munro,Munro,Munro,Munro,Munro,Munro,Munro,Munro,Munro,56.45458589745357,-4.619193183969658,Tyndrum,6.052743187209168,56.4359066,-4.711694
157,Beinn Challuim South Top [Ben Challum South Top],998.0,3274.0,238637.0,731579.0,Munro Top,Munro Top,Munro Top,Munro Top,Munro Top,Munro Top,Munro Top,Munro Top,Munro Top,Munro Top,Munro Top,56.44868211881405,-4.619565692592742,Tyndrum,5.838219092188636,56.4359066,-4.711694
158,Meall Glas,959.0,3146.0,243148.0,732194.0,Munro Top,Munro,Munro,Munro,Munro,Munro,Munro,Munro,Munro,Munro,Munro,56.455724116591654,-4.546831292278526,Crianlarich,8.201165545689873,56.3926292,-4.6158939
161,Meall Glas - Beinn Cheathaich,937.0,3074.0,244406.0,732662.0,Munro,Munro Top,Munro Top,Munro Top,Munro Top,Munro Top,Munro Top,Munro Top,Munro Top,Munro Top,Munro Top,56.46034148235702,-4.526719345628262,Crianlarich,9.31441319817048,56.3926292,-4.6158939
165,Sgiath Chuil,920.1,3019.0,246290.0,731793.0,Munro Top,Munro,Munro,Munro,Munro,Munro,Munro,Munro,Munro,Munro,Munro,56.45316004633705,-4.49566528594879,Crianlarich,9.99849652393355,56.3926292,-4.6158939
166,Sgiath Chuil - Meall a' Churain,917.3,3010.0,246279.0,732482.0,Munro,Munro Top,Munro Top,Munro Top,Munro Top,Munro Top,Munro Top,Munro Top,Munro Top,Munro Top,Munro Top,56.45934056457791,-4.496249396523192,Crianlarich,10.44771795953846,56.3926292,-4.6158939
178,Sgorr nam Fiannaidh (Aonach Eagach),967.7,3175.0,214044.0,758304.0,Munro,Munro,Munro,Munro,Munro,Munro,Munro,Munro,Munro,Munro,Munro,56.67938487245842,-5.037144563747398,Glencoe,3.9459825688318753,56.6827647,-5.1014552
181,Sgorr nam Fiannaidh (Aonach Eagach) - Stob Coire Leith,939.5,3082.0,214932.0,758487.0,Munro Top,Munro Top,Munro Top,Munro Top,Munro Top,Munro Top,Munro Top,Munro Top,Munro Top,Munro Top,Munro Top,56.681378979790196,-5.022803438226966,Glencoe,4.806333434461075,56.6827647,-5.1014552
179,Meall Dearg (Aonach Eagach),952.3,3124.0,216124.0,758363.0,Munro,Munro,Munro,Munro,Munro,Munro,Munro,Munro,Munro,Munro,Munro,56.680736939980655,-5.003286079010727,Kinlochleven,4.410710328323917,56.7142979,-4.9647756
180,Meall Dearg (Aonach Eagach) - Am Bodach,941.9,3090.0,216832.0,758018.0,Munro Top,Munro Top,Munro Top,Munro Top,Munro Top,Munro Top,Munro Top,Munro Top,Munro Top,Munro Top,Munro Top,56.67791975279634,-4.991500669724368,Kinlochleven,4.361763815659012,56.7142979,-4.9647756
196,Stob Dearg (Buachaille Etive Mor),1021.4,3351.0,222265.0,754254.0,Munro,Munro,Munro,Munro,Munro,Munro,Munro,Munro,Munro,Munro,Munro,56.64624563030774,-4.900350384786478,Kinlochleven,8.529110031661608,56.7142979,-4.9647756
197,Stob Dearg (Buachaille Etive Mor) - Stob na Doire,1010.5,3315.0,220755.0,753271.0,Munro Top,Munro Top,Munro Top,Munro Top,Munro Top,Munro Top,Munro Top,Munro Top,Munro Top,Munro Top,Munro Top,56.63685030259181,-4.9242582304093325,Kinlochleven,8.9604142355595,56.7142979,-4.9647756
203,Stob na Broige (Buachaille Etive Mor),953.4,3128.0,219072.0,752568.0,Munro Top,Munro Top,Munro Top,Munro Top,Munro Top,Munro Top,Munro Top,Munro Top,Munro Top,Munro,Munro,56.62989581197138,-4.9511662363956646,Kinlochleven,9.421841959693783,56.7142979,-4.9647756
206,Stob na Broige (Buachaille Etive Mor) - Stob Coire Altruim,938.8,3080.0,219714.0,753041.0,Munro Top,Munro Top,Munro Top,Munro Top,Munro Top,Munro Top,Munro Top,Munro Top,Munro Top,Munro Top,Munro Top,56.6343870974962,-4.941046139171378,Kinlochleven,9.003148256356386,56.7142979,-4.9647756
202,Stob Dubh (Buachaille Etive Beag),958.0,3143.0,217910.0,753541.0,Munro,Munro,Munro,Munro,Munro,Munro,Munro,Munro,Munro,Munro,Munro,56.63817492390172,-4.970767392453664,Kinlochleven,8.47239877679131,56.7142979,-4.9647756
209,Stob Coire Raineach (Buachaille Etive Beag),924.5,3033.0,219140.0,754796.0,Munro Top,Munro Top,Munro Top,Munro Top,Munro Top,Munro Top,Munro Top,Munro Top,Munro Top,Munro,Munro,56.649911294307515,-4.951621341958185,Kinlochleven,7.204403017506841,56.7142979,-4.9647756
191,Bidean nam Bian,1149.4,3771.0,214341.0,754211.0,Munro,Munro,Munro,Munro,Munro,Munro,Munro,Munro,Munro,Munro,Munro,56.6427840578305,-5.02935445571605,Glencoe,6.259119137523885,56.6827647,-5.1014552
192,Bidean nam Bian - Stob Coire nan Lochan,1115.6,3660.0,214833.0,754867.0,Munro Top,Munro Top,Munro Top,Munro Top,Munro Top,Munro Top,Munro Top,Munro Top,Munro Top,Munro Top,Munro Top,56.6488640521674,-5.021814549671922,Glencoe,6.155582974570033,56.6827647,-5.1014552
193,Bidean nam Bian - Stob Coire nam Beith,1106.9,3632.0,213898.0,754600.0,Munro Top,Munro Top,Munro Top,Munro Top,Munro Top,Munro Top,Munro Top,Munro Top,Munro Top,Munro Top,Munro Top,56.646097922311625,-5.036848162471215,Glencoe,5.675304676207484,56.6827647,-5.1014552
194,Stob Coire Sgreamhach,1072.0,3517.0,215487.0,753664.0,Munro Top,Munro Top,Munro Top,Munro Top,Munro Top,Munro Top,Munro Top,Munro Top,Munro Top,Munro,Munro,56.63832983263533,-5.0103034348083915,Glencoe,7.44603451414459,56.6827647,-5.1014552
204,Stob Coire Sgreamhach - Beinn Fhada,952.0,3123.0,215968.0,754056.0,Unclassified,Munro Top,Munro Top,Munro Top,Munro Top,Munro Top,Munro Top,Munro Top,Munro Top,Munro Top,Munro Top,56.642035926478606,-5.00275203644188,Glencoe,7.542662642311156,56.6827647,-5.1014552
208,Stob Coire Sgreamhach - Beinn Fhada NE Top,931.0,3054.0,216426.0,754319.0,Munro Top,Munro Top,Munro Top,Munro Top,Munro Top,Munro Top,Munro Top,Munro Top,Munro Top,Munro Top,Munro Top,56.644575238641316,-4.995481860490029,Glencoe,7.743902443721313,56.6827647,-5.1014552
195,Sgorr Dhearg (Beinn a' Bheithir),1024.0,3360.0,205684.0,755846.0,Munro,Munro,Munro,Munro,Munro,Munro,Munro,Munro,Munro,Munro,Munro,56.653936966849166,-5.171526354201883,Glenachulish,3.3392440100672203,56.682077,-5.1906109
198,Sgorr Dhonuill (Beinn a' Bheithir),1001.0,3284.0,204058.0,755540.0,Munro,Munro,Munro,Munro,Munro,Munro,Munro,Munro,Munro,Munro,Munro,56.65051424745289,-5.197772450510475,Glenachulish,3.5367932406341285,56.682077,-5.1906109
205,Sgorr Dhearg (Beinn a' Bheithir) - Sgorr Bhan,947.0,3107.0,206267.0,756051.0,Munro Top,Munro Top,Munro Top,Munro Top,Munro Top,Munro Top,Munro Top,Munro Top,Munro Top,Munro Top,Munro Top,56.65601754330165,-5.1621862711201985,Ballachulish,2.933836727508976,56.6767553,-5.1325011
199,Sgurr na h-Ulaidh [Sgor na h-Ulaidh],994.0,3261.0,211117.0,751794.0,Munro,Munro,Munro,Munro,Munro,Munro,Munro,Munro,Munro,Munro,Munro,56.61981206804615,-5.080077841783095,Ballachulish,7.096629757009632,56.6767553,-5.1325011
200,Sgurr na h-Ulaidh - Stob an Fhuarain,968.0,3176.0,211819.0,752316.0,Munro Top,Munro Top,Munro Top,Munro Top,Munro Top,Munro Top,Munro Top,Munro Top,Munro Top,Munro Top,Munro Top,56.62477732967631,-5.069035385978145,Glencoe,6.7455333437733405,56.6827647,-5.1014552
201,Beinn Fhionnlaidh,959.0,3146.0,209508.0,749769.0,Munro,Munro,Munro,Munro,Munro,Munro,Munro,Munro,Munro,Munro,Munro,56.60099526992421,-5.104766011487708,Invercreran,8.328172329874546,56.5731347,-5.2310167
207,Beinn Sgulaird,937.0,3074.0,205303.0,746088.0,Munro,Munro,Munro,Munro,Munro,Munro,Munro,Munro,Munro,Munro,Munro,56.566249409151794,-5.170381144920292,Invercreran,3.792599786715056,56.5731347,-5.2310167
232,Ben Cruachan,1127.0,3698.0,206962.0,730472.0,Munro,Munro,Munro,Munro,Munro,Munro,Munro,Munro,Munro,Munro,Munro,56.426851530635176,-5.131848971646878,Lochawe,5.932163726210859,56.3966493,-5.0523565
234,Ben Cruachan - Stob Dearg [Taynuilt Peak],1103.1,3619.0,206236.0,730745.0,Munro Top,Munro Top,Munro Top,Munro Top,Munro Top,Munro Top,Munro Top,Munro Top,Munro Top,Munro Top,Munro Top,56.42900300201648,-5.143803857080744,Taynuilt,5.875107556363909,56.4290505,-5.2393536
243,Ben Cruachan - Drochaid Ghlas,1024.4,3361.0,208331.0,730770.0,Munro Top,Munro Top,Munro Top,Munro Top,Munro Top,Munro Top,Munro Top,Munro Top,Munro Top,Munro Top,Munro Top,56.43008275842664,-5.109905139171827,Lochawe,5.133438395692772,56.3966493,-5.0523565
260,Ben Cruachan - Meall Cuanail,920.2,3019.0,206977.0,729562.0,Munro Top,Munro Top,Munro Top,Munro Top,Munro Top,Munro Top,Munro Top,Munro Top,Munro Top,Munro Top,Munro Top,56.41869438742896,-5.130934742348988,Lochawe,5.420257325567892,56.3966493,-5.0523565
244,Stob Daimh [Stob Diamh],999.2,3278.0,209482.0,730858.0,Munro,Munro,Munro,Munro,Munro,Munro,Munro,Munro,Munro,Munro,Munro,56.43133827220756,-5.091334224064555,Lochawe,4.541662934743407,56.3966493,-5.0523565
250,Stob Daimh - Stob Garbh,981.7,3221.0,209558.0,730249.0,Munro Top,Munro Top,Munro Top,Munro Top,Munro Top,Munro Top,Munro Top,Munro Top,Munro Top,Munro Top,Munro Top,56.42590562294957,-5.089660226583536,Lochawe,3.9810838876441945,56.3966493,-5.0523565
253,Stob Daimh - Sron An Isean,966.6,3171.0,209926.0,731145.0,Munro Top,Munro Top,Munro Top,Munro Top,Munro Top,Munro Top,Munro Top,Munro Top,Munro Top,Munro Top,Munro Top,56.43409199995137,-5.084354087614115,Lochawe,4.6051983323388646,56.3966493,-5.0523565
249,Beinn Eunaich,989.0,3245.0,213562.0,732797.0,Munro,Munro,Munro,Munro,Munro,Munro,Munro,Munro,Munro,Munro,Munro,56.450363623198214,-5.026655525623101,Lochawe,6.178340623679062,56.3966493,-5.0523565
251,Beinn a' Chochuill,980.0,3215.0,210978.0,732848.0,Munro,Munro,Munro,Munro,Munro,Munro,Munro,Munro,Munro,Munro,Munro,56.44979246215389,-5.068551712991751,Lochawe,5.992591999138673,56.3966493,-5.0523565
254,Beinn nan Aighenan,960.0,3150.0,214851.0,740528.0,Munro,Munro,Munro,Munro,Munro,Munro,Munro,Munro,Munro,Munro,Munro,56.52023074864097,-5.0112671019148305,Dalmally,13.260100902919715,56.4027002,-4.9747363
238,Ben Starav,1079.5,3542.0,212576.0,742714.0,Munro,Munro,Munro,Munro,Munro,Munro,Munro,Munro,Munro,Munro,Munro,56.53894064779292,-5.049766051454933,Invercreran,11.740125482696294,56.5731347,-5.2310167
242,Ben Starav - Stob Coire Dheirg,1027.7,3372.0,213134.0,742665.0,Munro Top,Munro Top,Munro Top,Munro Top,Munro Top,Munro Top,Munro Top,Munro Top,Munro Top,Munro Top,Munro Top,56.53872325149218,-5.040670259555082,Invercreran,12.276362936416412,56.5731347,-5.2310167
239,Ben Starav - Stob Coire Dheirg (1984-1990 position),1068.0,3504.0,212838.0,742486.0,Unclassified,Unclassified,Unclassified,Unclassified,Unclassified,Unclassified,Unclassified,Munro Top,Munro Top,Munro Top,Munro Top,56.53699962560338,-5.045347512004685,Invercreran,12.067045358908453,56.5731347,-5.2310167
257,Ben Starav - Meall Cruidh,930.0,3051.0,212914.0,741562.0,Munro Top,Munro Top,Munro Top,Munro Top,Munro Top,Munro Top,Munro Top,Munro Top,Munro Top,Munro Top,Munro Top,56.52874048084734,-5.0434480539558795,Invercreran,12.511135674639458,56.5731347,-5.2310167
259,Ben Starav - Stob an Duine Ruaidh,918.0,3012.0,212464.0,741000.0,Unclassified,Unclassified,Unclassified,Unclassified,Unclassified,Unclassified,Unclassified,Unclassified,Unclassified,Munro Top,Munro Top,56.52351940741763,-5.050347366099815,Invercreran,12.3721680825289,56.5731347,-5.2310167
245,Glas Bheinn Mhor,997.7,3273.0,215327.0,742982.0,Munro,Munro,Munro,Munro,Munro,Munro,Munro,Munro,Munro,Munro,Munro,56.542434063137875,-5.005286051404711,Invercreran,14.24756832518938,56.5731347,-5.2310167
241,Stob Coir' an Albannaich,1044.0,3425.0,216952.0,744303.0,Munro,Munro,Munro,Munro,Munro,Munro,Munro,Munro,Munro,Munro,Munro,56.554921523871194,-4.979828085352766,Bridge of Orchy,13.69676113361554,56.5176858,-4.7668913
258,Meall nan Eun,928.0,3045.0,219248.0,744903.0,Munro,Munro,Munro,Munro,Munro,Munro,Munro,Munro,Munro,Munro,Munro,56.56119394112757,-4.942946056440645,Bridge of Orchy,11.828310073650293,56.5176858,-4.7668913
237,Stob Ghabhar,1090.0,3576.0,223017.0,745515.0,Munro,Munro,Munro,Munro,Munro,Munro,Munro,Munro,Munro,Munro,Munro,56.56812083683678,-4.882120457409776,Bridge of Orchy,9.019412042232084,56.5176858,-4.7668913
247,Stob Ghabhar - Aonach Eagach,1000.0,3281.0,223542.0,745359.0,Munro Top,Munro Top,Munro Top,Munro Top,Munro Top,Munro Top,Munro Top,Munro Top,Munro Top,Munro Top,Munro Top,56.56691875948357,-4.873481702157075,Bridge of Orchy,8.52457699225099,56.5176858,-4.7668913
248,Stob Ghabhar - Sron a' Ghearrain,990.0,3248.0,222102.0,745661.0,Munro Top,Munro Top,Munro Top,Munro Top,Munro Top,Munro Top,Munro Top,Munro Top,Munro Top,Munro Top,Munro Top,56.56908494548849,-4.89709141897549,Bridge of Orchy,9.816843516465907,56.5176858,-4.7668913
252,Stob Ghabhar - Sron nan Giubhas,976.0,3202.0,223050.0,746188.0,Munro Top,Munro Top,Munro Top,Munro Top,Munro Top,Munro Top,Munro Top,Munro Top,Munro Top,Munro Top,Munro Top,56.57417175101491,-4.882043728591341,Bridge of Orchy,9.448530441019924,56.5176858,-4.7668913
256,Stob Ghabhar - Stob a' Bhruaich Leith,941.0,3087.0,220863.0,745985.0,Munro Top,Munro Top,Munro Top,Munro Top,Munro Top,Munro Top,Munro Top,Munro Top,Munro Top,Munro Top,Munro Top,56.57152075830899,-4.917452008895106,Bridge of Orchy,11.000753717309099,56.5176858,-4.7668913
255,Stob a' Choire Odhair,945.0,3100.0,225731.0,745982.0,Munro,Munro,Munro,Munro,Munro,Munro,Munro,Munro,Munro,Munro,Munro,56.57332653724175,-4.838324214381503,Bridge of Orchy,7.57971667166883,56.5176858,-4.7668913
235,Creise,1099.8,3608.0,223854.0,750645.0,Munro Top,Munro Top,Munro Top,Munro Top,Munro Top,Munro Top,Munro,Munro,Munro,Munro,Munro,56.61446475191334,-4.8720090889043375,Kinlochleven,12.464511218039235,56.7142979,-4.9647756
240,Creise - Mam Coire Easain,1070.0,3510.0,223884.0,750001.0,Munro Top,Munro Top,Munro Top,Munro Top,Munro Top,Munro Top,Munro Top,Munro Top,Munro Top,Munro Top,Munro Top,56.60869773990904,-4.871082052384617,Bridge of Orchy,11.965305333636984,56.5176858,-4.7668913
236,Creise - Clach Leathad,1099.0,3606.0,224032.0,749320.0,Munro,Munro,Munro,Munro,Munro,Munro,Munro Top,Munro Top,Munro Top,Munro Top,Munro Top,56.60264303544361,-4.868210584320786,Bridge of Orchy,11.30424437853935,56.5176858,-4.7668913
246,Creise - Stob a' Ghlais Choire,995.6,3266.0,223992.0,751622.0,Munro Top,Munro Top,Munro Top,Munro Top,Munro Top,Munro Top,Munro Top,Munro Top,Munro Top,Munro Top,Munro Top,56.623282732311026,-4.870429191671405,Kinlochleven,11.646984559797959,56.7142979,-4.9647756
233,Meall a' Bhuiridh,1107.9,3635.0,225063.0,750346.0,Munro,Munro,Munro,Munro,Munro,Munro,Munro,Munro,Munro,Munro,Munro,56.61223482779895,-4.852133045883014,Bridge of Orchy,11.739075397311316,56.5176858,-4.7668913
278,Ben Nevis,1344.53,4411.0,216666.0,771288.0,Munro,Munro,Munro,Munro,Munro,Munro,Munro,Munro,Munro,Munro,Munro,56.796903684960306,-5.003696042293008,Glen Nevis,4.856540392706363,56.809849,-5.0798829
280,Ben Nevis - Carn Dearg (NW),1221.0,4006.0,215942.0,771916.0,Unclassified,Unclassified,Unclassified,Unclassified,Unclassified,Unclassified,Munro Top,Munro Top,Munro Top,Munro Top,Munro Top,56.80225175272046,-5.015985587670503,Glen Nevis,3.9805150146339154,56.809849,-5.0798829
283,Ben Nevis - Carn Dearg (NW) (old GR),1214.0,3983.0,215888.0,772131.0,Munro Top,Munro Top,Munro Top,Munro Top,Munro Top,Munro Top,Munro Top,Munro Top,Munro Top,Munro Top,Munro Top,56.804159164452166,-5.017023634660474,Glen Nevis,3.878500950866162,56.809849,-5.0798829
304,Ben Nevis - Carn Dearg (SW),1020.0,3346.0,215565.0,770110.0,Munro Top,Munro Top,Munro Top,Munro Top,Munro Top,Munro Top,Munro Top,Munro Top,Munro Top,Munro Top,Munro Top,56.785900813674886,-5.020846042294587,Glen Nevis,4.473617779810825,56.809849,-5.0798829
279,Aonach Beag,1234.0,4049.0,219707.0,771502.0,Munro,Munro,Munro,Munro,Munro,Munro,Munro,Munro,Munro,Munro,Munro,56.80001161029786,-4.954126707647685,Glen Nevis,7.733566692401058,56.809849,-5.0798829
294,Aonach Beag - Stob Coire Bhealaich,1101.0,3612.0,220153.0,770898.0,Munro Top,Munro Top,Munro Top,Munro Top,Munro Top,Munro Top,Munro Top,Munro Top,Munro Top,Munro Top,Munro Top,56.79476533178328,-4.946408517393717,Glen Nevis,8.297534929064554,56.809849,-5.0798829
316,Aonach Beag - Sgurr a' Bhuic,963.0,3159.0,220409.0,770169.0,Munro Top,Munro Top,Munro Top,Munro Top,Munro Top,Munro Top,Munro Top,Munro Top,Munro Top,Munro Top,Munro Top,56.788323831134306,-4.941710582508679,Kinlochleven,8.350552721535882,56.7142979,-4.9647756
281,Aonach Mor,1220.4,4004.0,219306.0,772962.0,Munro,Munro,Munro,Munro,Munro,Munro,Munro,Munro,Munro,Munro,Munro,56.812954460551104,-4.961717305142869,Glen Nevis,7.200755752618023,56.809849,-5.0798829
299,Aonach Mor - Stob an Chul-Choire [Stob an Cul Choire],1070.1,3511.0,220309.0,773109.0,Munro Top,Munro Top,Munro Top,Munro Top,Munro Top,Munro Top,Munro Top,Munro Top,Munro Top,Munro Top,Munro Top,56.81466186500688,-4.945414565424816,Glen Nevis,8.202073068213906,56.809849,-5.0798829
311,Aonach Mor - Stob Coire an Fhir Dhuibh,986.0,3235.0,220848.0,773611.0,Munro Top,Munro Top,Munro Top,Munro Top,Munro Top,Munro Top,Munro Top,Munro Top,Munro Top,Munro Top,Munro Top,56.81937358447919,-4.936950177883372,Spean Bridge,8.136150352933617,56.8920582,-4.9215585
322,Aonach Mor - Tom na Sroine,918.7,3014.0,220774.0,774515.0,Munro Top,Munro Top,Munro Top,Munro Top,Munro Top,Munro Top,Munro Top,Munro Top,Munro Top,Munro Top,Munro Top,56.82745544506799,-4.938796368198429,Spean Bridge,7.259524429177617,56.8920582,-4.9215585
282,Carn Mor Dearg,1220.0,4003.0,217748.0,772172.0,Munro,Munro,Munro,Munro,Munro,Munro,Munro,Munro,Munro,Munro,Munro,56.805259281009306,-4.986636804073198,Glen Nevis,5.699157753951295,56.809849,-5.0798829
284,Carn Mor Dearg - Carn Dearg Meadhonach,1179.0,3868.0,217596.0,772686.0,Munro Top,Munro Top,Munro Top,Munro Top,Munro Top,Munro Top,Munro Top,Munro Top,Munro Top,Munro Top,Munro Top,56.8098109455053,-4.989489878761243,Glen Nevis,5.502250504360814,56.809849,-5.0798829
307,Carn Mor Dearg - Carn Beag Dearg,1010.0,3314.0,217146.0,773596.0,Munro Top,Munro Top,Munro Top,Munro Top,Munro Top,Munro Top,Munro Top,Munro Top,Munro Top,Munro Top,Munro Top,56.81779806242374,-4.99750197371768,Glen Nevis,5.091328740762632,56.809849,-5.0798829
296,Sgurr Choinnich Mor,1094.0,3589.0,222771.0,771419.0,Munro,Munro,Munro,Munro,Munro,Munro,Munro,Munro,Munro,Munro,Munro,56.80044399794065,-4.903966215787521,Spean Bridge,10.243054017720885,56.8920582,-4.9215585
317,Sgurr Choinnich Mor - Sgurr Choinnich Beag,963.0,3159.0,222017.0,771037.0,Munro Top,Munro Top,Munro Top,Munro Top,Munro Top,Munro Top,Munro Top,Munro Top,Munro Top,Munro Top,Munro Top,56.7967289607977,-4.916029551701428,Kinlochleven,9.635544687678948,56.7142979,-4.9647756
289,Stob Coire an Laoigh,1116.0,3661.0,223984.0,772532.0,Munro,Munro,Munro,Munro,Munro,Munro,Munro,Munro,Munro,Munro,Munro,56.81089037439344,-4.884898050685163,Inverroy,9.101286263104504,56.892059,-4.8656263
291,Stob Coire an Laoigh - Caisteal,1106.0,3629.0,224664.0,772938.0,Munro Top,Munro Top,Munro Top,Munro Top,Munro Top,Munro Top,Munro Top,Munro Top,Munro Top,Munro Top,Munro Top,56.81478990706729,-4.874054092611999,Inverroy,8.607196945924692,56.892059,-4.8656263
297,Stob Coire an Laoigh - Stob Coire Easain,1080.0,3543.0,223475.0,772737.0,Munro Top,Munro Top,Munro Top,Munro Top,Munro Top,Munro Top,Munro Top,Munro Top,Munro Top,Munro Top,Munro Top,56.81253675128398,-4.893365674355403,Inverroy,9.001881396220082,56.892059,-4.8656263
298,Stob Coire an Laoigh - Stob Coire Cath na Sine,1082.4,3551.0,225234.0,773051.0,Munro Top,Munro Top,Munro Top,Munro Top,Munro Top,Munro Top,Munro Top,Munro Top,Munro Top,Munro Top,Munro Top,56.81601831862069,-4.864806775463409,Inverroy,8.4554847940347,56.892059,-4.8656263
306,Stob Coire an Laoigh - Beinn na Socaich,1007.0,3304.0,223629.0,773484.0,Munro Top,Munro Top,Munro Top,Munro Top,Munro Top,Munro Top,Munro Top,Munro Top,Munro Top,Munro Top,Munro Top,56.81929729055622,-4.8913631216932965,Inverroy,8.240644047358044,56.892059,-4.8656263
285,Stob Choire Claurigh,1177.0,3862.0,226196.0,773878.0,Munro,Munro,Munro,Munro,Munro,Munro,Munro,Munro,Munro,Munro,Munro,56.823798995839475,-4.849632221869136,Roybridge,7.523538652353857,56.8913146,-4.8415287
286,Stob Choire Claurigh North Top,1121.0,3678.0,226233.0,774279.0,Unclassified,Munro Top,Munro Top,Munro Top,Munro Top,Munro Top,Munro Top,Munro Top,Munro Top,Munro Top,Munro Top,56.827410742942746,-4.849300154034304,Roybridge,7.121471872934567,56.8913146,-4.8415287
288,Stob Choire Claurigh - Stob Coire na Ceannain,1123.0,3684.0,226780.0,774590.0,Munro Top,Munro Top,Munro Top,Munro Top,Munro Top,Munro Top,Munro Top,Munro Top,Munro Top,Munro Top,Munro Top,56.83040532405371,-4.840559871164107,Roybridge,6.773058514530302,56.8913146,-4.8415287
293,Stob Choire Claurigh - Stob a' Choire Leith,1105.0,3625.0,225675.0,773663.0,Munro Top,Munro Top,Munro Top,Munro Top,Munro Top,Munro Top,Munro Top,Munro Top,Munro Top,Munro Top,Munro Top,56.82167488783593,-4.85801046519896,Roybridge,7.808141679942996,56.8913146,-4.8415287
318,Stob Choire Claurigh - Stob Coire Gaibhre [Stob Coire na Gaibhre],958.0,3143.0,226093.0,775715.0,Munro Top,Munro Top,Munro Top,Munro Top,Munro Top,Munro Top,Munro Top,Munro Top,Munro Top,Munro Top,Munro Top,56.840242646355364,-4.852571524997462,Roybridge,5.718466671188055,56.8913146,-4.8415287
314,Stob Ban,977.0,3205.0,226669.0,772395.0,Munro,Munro,Munro,Munro,Munro,Munro,Munro,Munro,Munro,Munro,Munro,56.8106694682078,-4.840884363625431,Roybridge,8.967415096491338,56.8913146,-4.8415287
290,Stob Coire Easain,1115.0,3658.0,230802.0,773066.0,Munro,Munro,Munro,Munro,Munro,Munro,Munro,Munro,Munro,Munro,Munro,56.81821216491349,-4.7737195050406935,Roybridge,9.114296476832616,56.8913146,-4.8415287
292,Stob a' Choire Mheadhoin,1105.0,3625.0,231652.0,773643.0,Munro,Munro,Munro,Munro,Munro,Munro,Munro,Munro,Munro,Munro,Munro,56.823698133048566,-4.760192669516368,Roybridge,8.998832435426989,56.8913146,-4.8415287
305,Sgurr Eilde Mor,1010.0,3314.0,223054.0,765788.0,Munro,Munro,Munro,Munro,Munro,Munro,Munro,Munro,Munro,Munro,Munro,56.750030065809646,-4.895442148227181,Kinlochleven,5.802739656576705,56.7142979,-4.9647756
320,Binnein Beag,943.0,3094.0,222173.0,767714.0,Munro,Munro,Munro,Munro,Munro,Munro,Munro,Munro,Munro,Munro,Munro,56.766974887473815,-4.911167112328069,Kinlochleven,6.707970430655433,56.7142979,-4.9647756
287,Binnein Mor,1130.0,3707.0,221219.0,766352.0,Munro,Munro,Munro,Munro,Munro,Munro,Munro,Munro,Munro,Munro,Munro,56.75439015202522,-4.925801869978084,Kinlochleven,5.052221641614919,56.7142979,-4.9647756
300,Binnein Mor South Top,1062.0,3484.0,221107.0,765695.0,Munro Top,Munro Top,Munro Top,Munro Top,Munro Top,Munro Top,Munro Top,Munro Top,Munro Top,Munro Top,Munro Top,56.74845267881148,-4.927172167563485,Kinlochleven,4.436747584213399,56.7142979,-4.9647756
319,Binnein Mor - Sgor Eilde Beag,955.7,3135.0,221963.0,765300.0,Munro Top,Munro Top,Munro Top,Munro Top,Munro Top,Munro Top,Munro Top,Munro Top,Munro Top,Munro Top,Munro Top,56.7452364008028,-4.912919486244399,Kinlochleven,4.673442829267719,56.7142979,-4.9647756
301,Na Gruagaichean,1054.3,3459.0,220307.0,765200.0,Munro Top,Munro,Munro,Munro,Munro,Munro,Munro,Munro,Munro,Munro,Munro,56.743704029882956,-4.939888460038259,Kinlochleven,3.6050605262390034,56.7142979,-4.9647756
302,Na Gruagaichean NW Top,1038.8,3408.0,220105.0,765440.0,Munro Top,Munro Top,Munro Top,Munro Top,Munro Top,Munro Top,Munro Top,Munro Top,Munro Top,Munro Top,Munro Top,56.74577936547696,-4.94335505018101,Kinlochleven,3.7364940820732264,56.7142979,-4.9647756
312,An Gearanach,981.5,3220.0,218770.0,766992.0,Munro,Munro Top,Munro,Munro,Munro,Munro,Munro,Munro,Munro,Munro,Munro,56.759186258851244,-4.966250902906736,Kinlochleven,4.992168694184494,56.7142979,-4.9647756
315,An Gearanach - An Garbhanach,974.9,3198.0,218819.0,766569.0,Munro Top,Munro,Munro Top,Munro Top,Munro Top,Munro Top,Munro Top,Munro Top,Munro Top,Munro Top,Munro Top,56.75541035078362,-4.9651512178950465,Kinlochleven,4.5715533537247826,56.7142979,-4.9647756
313,Stob Coire a' Chairn,981.3,3219.0,218561.0,766063.0,Munro,Munro,Munro,Munro,Munro,Munro,Munro,Munro,Munro,Munro,Munro,56.75077041486479,-4.969006359267131,Kinlochleven,4.063760550034302,56.7142979,-4.9647756
303,Am Bodach,1031.8,3385.0,217637.0,765097.0,Munro,Munro,Munro,Munro,Munro,Munro,Munro,Munro,Munro,Munro,Munro,56.74174353552082,-4.9834074308864835,Kinlochleven,3.256598718089851,56.7142979,-4.9647756
308,Sgurr a' Mhaim - Sgurr an Iubhair [Sgor an Iubhair],999.7,3280.0,216521.0,765512.0,Munro Top,Munro Top,Munro Top,Munro Top,Munro Top,Munro Top,Munro,Munro,Munro,Munro Top,Munro Top,56.745028901624174,-5.001923830639233,Kinlochleven,4.1002201243360075,56.7142979,-4.9647756
310,Sgurr a' Mhaim - Stob Choire a' Mhail,990.0,3248.0,216329.0,766001.0,Unclassified,Unclassified,Unclassified,Unclassified,Unclassified,Unclassified,Munro Top,Munro Top,Munro Top,Munro Top,Munro Top,56.74934024653787,-5.00540915159285,Kinlochleven,4.61801084042664,56.7142979,-4.9647756
295,Sgurr a' Mhaim,1099.0,3606.0,216465.0,766730.0,Munro,Munro,Munro,Munro,Munro,Munro,Munro,Munro,Munro,Munro,Munro,56.755933827790884,-5.003710864845674,Kinlochleven,5.203217015225084,56.7142979,-4.9647756
309,Stob Ban,999.7,3280.0,214777.0,765443.0,Munro,Munro,Munro,Munro,Munro,Munro,Munro,Munro,Munro,Munro,Munro,56.74372046487002,-5.03034742331334,Kinlochleven,5.167538576374316,56.7142979,-4.9647756
321,Mullach nan Coirean,939.3,3082.0,212233.0,766243.0,Munro,Munro,Munro,Munro,Munro,Munro,Munro,Munro,Munro,Munro,Munro,56.74987968138947,-5.072465409487179,Glen Nevis,6.68357642015167,56.809849,-5.0798829
323,Mullach nan Coirean SE Top,917.5,3010.0,213125.0,765472.0,Munro Top,Munro Top,Munro Top,Munro Top,Munro Top,Munro Top,Munro Top,Munro Top,Munro Top,Munro Top,Munro Top,56.74332157508534,-5.057338379641588,Kinlochleven,6.503713821721978,56.7142979,-4.9647756
324,Mullach nan Coirean East Top,916.6,3007.0,213731.0,765600.0,Unclassified,Unclassified,Unclassified,Unclassified,Unclassified,Unclassified,Unclassified,Unclassified,Unclassified,Unclassified,Munro Top,56.74471228205372,-5.047538203147255,Kinlochleven,6.076637463460796,56.7142979,-4.9647756
356,Stob Coire Sgriodain,979.0,3212.0,235669.0,774381.0,Munro,Munro,Munro,Munro,Munro,Munro,Munro,Munro,Munro,Munro,Munro,56.83175794593939,-4.694929032828469,Roybridge,11.10254167407962,56.8913146,-4.8415287
360,Stob Coire Sgriodain South Top,958.0,3143.0,235935.0,773883.0,Munro Top,Munro Top,Munro Top,Munro Top,Munro Top,Munro Top,Munro Top,Munro Top,Munro Top,Munro Top,Munro Top,56.82738309580266,-4.690254218036057,Roybridge,11.623308492808734,56.8913146,-4.8415287
351,Chno Dearg,1046.0,3432.0,237741.0,774115.0,Munro,Munro,Munro,Munro,Munro,Munro,Munro,Munro,Munro,Munro,Munro,56.83009897700151,-4.6608423055283374,Roybridge,12.921707087699817,56.8913146,-4.8415287
357,Chno Dearg - Meall Garbh (old GR),975.0,3199.0,237107.0,773051.0,Munro Top,Munro Top,Munro Top,Munro Top,Munro Top,Munro Top,Munro Top,Munro Top,Munro Top,Munro Top,Munro Top,56.820329176592864,-4.670539987362616,Roybridge,13.052439646052127,56.8913146,-4.8415287
358,Chno Dearg - Meall Garbh,976.0,3202.0,237172.0,772759.0,Unclassified,Unclassified,Unclassified,Unclassified,Unclassified,Unclassified,Munro Top,Munro Top,Munro Top,Munro Top,Munro Top,56.81773161691602,-4.669289835505743,Roybridge,13.289200069260708,56.8913146,-4.8415287
364,Beinn na Lap,935.0,3068.0,237616.0,769585.0,Munro,Munro,Munro,Munro,Munro,Munro,Munro,Munro,Munro,Munro,Munro,56.78940401211299,-4.660005161788746,Roybridge,15.82095800281446,56.8913146,-4.8415287
363,Carn Dearg,941.0,3087.0,241773.0,766143.0,Munro,Munro,Munro,Munro,Munro,Munro,Munro,Munro,Munro,Munro,Munro,56.759945967393584,-4.589900939157888,Roybridge,21.160832579433944,56.8913146,-4.8415287
361,Sgor Gaibhre,955.0,3133.0,244477.0,767448.0,Munro,Munro,Munro,Munro,Munro,Munro,Munro,Munro,Munro,Munro,Munro,56.77256826413258,-4.546512030134262,Roybridge,22.281029334523662,56.8913146,-4.8415287
365,Sgor Gaibhre - Sgor Choinnich,929.0,3048.0,244360.0,768323.0,Munro,Munro Top,Munro Top,Munro Top,Munro Top,Munro Top,Munro Top,Munro Top,Munro Top,Munro Top,Munro Top,56.78038200058595,-4.548957073856336,Roybridge,21.653447905332147,56.8913146,-4.8415287
348,Beinn Eibhinn,1103.3,3620.0,244965.0,773302.0,Munro,Munro,Munro,Munro,Munro,Munro,Munro,Munro,Munro,Munro,Munro,56.82526871820939,-4.542090575691776,Roybridge,19.628895679100783,56.8913146,-4.8415287
366,Beinn Eibhinn - Meall Glas Choire,924.0,3031.0,243675.0,772782.0,Munro Top,Munro Top,Munro Top,Munro Top,Munro Top,Munro Top,Munro Top,Munro Top,Munro Top,Munro Top,Munro Top,56.820169939863405,-4.562886292460912,Roybridge,18.696376267933534,56.8913146,-4.8415287
368,Beinn Eibhinn - Mullach Coire nan Nead,922.0,3025.0,243026.0,773429.0,Munro Top,Munro Top,Munro Top,Munro Top,Munro Top,Munro Top,Munro Top,Munro Top,Munro Top,Munro Top,Munro Top,56.825757708255836,-4.573905960743313,Roybridge,17.827538780634974,56.8913146,-4.8415287
347,Aonach Beag,1115.8,3661.0,245786.0,774190.0,Munro,Munro,Munro,Munro,Munro,Munro,Munro,Munro,Munro,Munro,Munro,56.833511372784876,-4.529189682658868,Roybridge,20.043940208923736,56.8913146,-4.8415287
346,Geal-Charn,1132.0,3714.0,246992.0,774629.0,Munro,Munro,Munro,Munro,Munro,Munro,Munro,Munro,Munro,Munro,Munro,56.83785000792537,-4.509708655082668,Dalwhinnie,19.496116373332573,56.934472,-4.2418957
353,Geal-Charn - Sgor Iutharn,1028.0,3373.0,248969.0,774386.0,Munro Top,Munro Top,Munro Top,Munro Top,Munro Top,Munro Top,Munro Top,Munro Top,Munro Top,Munro Top,Munro Top,56.83631597675556,-4.477192376052811,Dalwhinnie,17.98427531331456,56.934472,-4.2418957
352,Carn Dearg,1034.0,3392.0,250416.0,776444.0,Munro,Munro,Munro,Munro,Munro,Munro,Munro,Munro,Munro,Munro,Munro,56.85525506133317,-4.454708723484028,Dalwhinnie,15.640799833497061,56.934472,-4.2418957
369,Carn Dearg - Diollaid a' Chairn,925.0,3035.0,248715.0,775779.0,Munro Top,Munro Top,Munro Top,Munro Top,Munro Top,Munro Top,Munro Top,Munro Top,Munro Top,Munro Top,Munro Top,56.848735537712,-4.482179131609404,Dalwhinnie,17.43206362691759,56.934472,-4.2418957
349,Beinn a' Chlachair,1087.0,3566.0,247122.0,778155.0,Munro,Munro,Munro,Munro,Munro,Munro,Munro,Munro,Munro,Munro,Munro,56.86953800614062,-4.5096990257478025,Dalwhinnie,17.79206947229296,56.934472,-4.2418957
367,Creag Pitridh,924.0,3031.0,248752.0,781459.0,Munro,Munro,Munro,Munro,Munro,Munro,Munro,Munro,Munro,Munro,Munro,56.899725362852216,-4.484954717138596,Dalwhinnie,15.250236700428799,56.934472,-4.2418957
350,Geal Charn,1049.0,3442.0,250432.0,781181.0,Munro,Munro,Munro,Munro,Munro,Munro,Munro,Munro,Munro,Munro,Munro,56.89777546453157,-4.457235922073992,Dalwhinnie,13.692744540972726,56.934472,-4.2418957
355,Geal Charn - Sron Garbh,1023.0,3356.0,250933.0,781075.0,Munro Top,Munro Top,Munro Top,Munro Top,Munro Top,Munro Top,Munro Top,Munro Top,Munro Top,Munro Top,Munro Top,56.89698548754061,-4.448956735870078,Dalwhinnie,13.24141494286279,56.934472,-4.2418957
345,Ben Alder,1148.0,3766.0,249616.0,771855.0,Munro,Munro,Munro,Munro,Munro,Munro,Munro,Munro,Munro,Munro,Munro,56.81380974467926,-4.465104978508903,Dalwhinnie,19.07837222260673,56.934472,-4.2418957
354,Beinn Bheoil,1019.0,3343.0,251716.0,771722.0,Munro,Munro,Munro,Munro,Munro,Munro,Munro,Munro,Munro,Munro,Munro,56.813290431321164,-4.430662265286905,Dalwhinnie,17.695888984515452,56.934472,-4.2418957
362,Beinn Bheoil - Sron Coire na h-Iolaire,956.0,3136.0,251305.0,770437.0,Munro Top,Munro Top,Munro Top,Munro Top,Munro Top,Munro Top,Munro Top,Munro Top,Munro Top,Munro Top,Munro Top,56.80162584064294,-4.436639081897117,Dalwhinnie,18.928524121526923,56.934472,-4.2418957
383,Beinn Udlamain,1010.2,3314.0,257945.0,773975.0,Munro,Munro,Munro,Munro,Munro,Munro,Munro,Munro,Munro,Munro,Munro,56.835458187314444,-4.329978464939103,Dalwhinnie,12.241249415901809,56.934472,-4.2418957
385,Sgairneach Mhor (old GR),963.0,3159.0,259498.0,772758.0,Munro,Munro,Munro,Munro,Munro,Munro,Munro,Munro,Munro,Munro,Munro,56.82500641308214,-4.303876217327259,Dalwhinnie,12.74122132918776,56.934472,-4.2418957
384,Sgairneach Mhor,991.0,3251.0,259882.0,773130.0,Unclassified,Munro,Munro,Munro,Munro,Munro,Munro,Munro,Munro,Munro,Munro,56.82846150114782,-4.297794326306019,Dalwhinnie,12.267278396088253,56.934472,-4.2418957
387,A' Mharconaich - Bruach nan Iomairean,969.8,3182.0,260142.0,775883.0,Unclassified,Unclassified,Unclassified,Unclassified,Unclassified,Munro,Munro,Munro,Munro,Munro,Munro,56.85325142277278,-4.295049916003869,Dalwhinnie,9.590948061676787,56.934472,-4.2418957
386,A' Mharconaich,973.2,3193.0,260423.0,776293.0,Munro,Munro,Munro,Munro,Munro,Munro,Munro,Munro,Munro,Munro,Munro,56.85701624759314,-4.290671185995582,Dalwhinnie,9.107843040563987,56.934472,-4.2418957
392,Geal-charn,917.1,3009.0,259644.0,778261.0,Munro,Munro,Munro,Munro,Munro,Munro,Munro,Munro,Munro,Munro,Munro,56.874446425518954,-4.304521801011381,Dalwhinnie,7.6816667755934285,56.934472,-4.2418957
388,Meall Chuaich,951.0,3120.0,271648.0,787834.0,Munro,Munro,Munro,Munro,Munro,Munro,Munro,Munro,Munro,Munro,Munro,56.96386248725221,-4.112575825235006,Dalwhinnie,8.496134034758013,56.934472,-4.2418957
389,Carn na Caim,940.8,3087.0,267700.0,782153.0,Munro,Munro,Munro,Munro,Munro,Munro,Munro,Munro,Munro,Munro,Munro,56.91175215628534,-4.1744833473341005,Dalwhinnie,4.808182311714772,56.934472,-4.2418957
394,Carn na Caim - Mullach Coire nan Cisteachan [Carn na Caim South Top],914.6,3001.0,266387.0,780691.0,Unclassified,Unclassified,Unclassified,Unclassified,Unclassified,Unclassified,Unclassified,Unclassified,Unclassified,Unclassified,Munro Top,56.898251271755456,-4.195259259557344,Dalwhinnie,4.922815021963978,56.934472,-4.2418957
390,A' Bhuidheanach Bheag,936.1,3071.0,266059.0,777594.0,Munro Top,Munro,Munro,Munro,Munro,Munro,Munro,Munro,Munro,Munro,Munro,56.87035556136549,-4.199005692280914,Dalwhinnie,7.590184969276511,56.934472,-4.2418957
391,A' Bhuidheanach Bheag - Glas Mheall Mor,927.9,3044.0,268063.0,776957.0,Munro,Munro Top,Munro Top,Munro Top,Munro Top,Munro Top,Munro Top,Munro Top,Munro Top,Munro Top,Munro Top,56.86521145108406,-4.16582497040803,Dalwhinnie,8.980534376987249,56.934472,-4.2418957
393,A' Bhuidheanach Bheag - Meall a' Chaorainn,916.0,3005.0,264608.0,777701.0,Munro,Munro Top,Munro Top,Munro Top,Munro Top,Munro Top,Munro Top,Munro Top,Munro Top,Munro Top,Munro Top,56.870894900366864,-4.222847034862892,Dalwhinnie,7.163442852946447,56.934472,-4.2418957
406,Beinn Dearg,1008.7,3309.0,285296.0,777800.0,Munro,Munro,Munro,Munro,Munro,Munro,Munro,Munro,Munro,Munro,Munro,56.87736092741832,-3.88371372762905,Bridge of Tilt,12.58698826128216,56.7670162,-3.8375674
412,Beinn Dearg - Beinn Gharbh,930.4,3052.0,285137.0,779058.0,Munro Top,Munro Top,Munro Top,Munro Top,Munro Top,Munro Top,Munro Top,Munro Top,Munro Top,Munro Top,Munro Top,56.88861654650042,-3.8868903220644464,Bridge of Tilt,13.850336073485865,56.7670162,-3.8375674
407,An Sgarsoch,1006.5,3302.0,293339.0,783685.0,Munro,Munro,Munro,Munro,Munro,Munro,Munro,Munro,Munro,Munro,Munro,56.932123014520585,-3.754291685663164,Bridge of Tilt,19.044544284237205,56.7670162,-3.8375674
411,An Sgarsoch - Druim Sgarsoch,954.0,3130.0,294500.0,783600.0,Munro Top,Munro Top,Munro Top,Munro Top,Munro Top,Munro Top,Munro Top,Munro Top,Munro Top,Munro Top,Munro Top,56.93162593931762,-3.7351885301069965,Bridge of Tilt,19.33343227209557,56.7670162,-3.8375674
408,Carn an Fhidhleir [Carn Ealar],994.0,3261.0,290476.0,784195.0,Munro,Munro,Munro,Munro,Munro,Munro,Munro,Munro,Munro,Munro,Munro,56.93603348309199,-3.8015316109551014,Bridge of Tilt,18.921154565116158,56.7670162,-3.8375674
409,Carn a' Chlamain,963.5,3161.0,291591.0,775807.0,Munro,Munro,Munro,Munro,Munro,Munro,Munro,Munro,Munro,Munro,Munro,56.860980040103414,-3.7796314773146116,Bridge of Tilt,11.027283095728535,56.7670162,-3.8375674
410,Carn a' Chlamain North Top,952.0,3123.0,291373.0,776137.0,Unclassified,Unclassified,Unclassified,Unclassified,Unclassified,Unclassified,Munro Top,Munro Top,Munro Top,Munro Top,Munro Top,56.863892146968546,-3.783345971074661,Bridge of Tilt,11.266244908140969,56.7670162,-3.8375674
421,Carn nan Gabhar (Beinn a' Ghlo),1121.9,3681.0,297116.0,773314.0,Munro,Munro,Munro,Munro,Munro,Munro,Munro,Munro,Munro,Munro,Munro,56.839852107833316,-3.688053556979971,Killiecrankie,11.926075596074181,56.7449568,-3.7793169
423,Carn nan Gabhar (Beinn a' Ghlo) - Airgiod Bheinn,1061.7,3483.0,296186.0,771996.0,Munro Top,Munro Top,Munro Top,Munro Top,Munro Top,Munro Top,Munro Top,Munro Top,Munro Top,Munro Top,Munro Top,56.827810149929,-3.702752721643907,Killiecrankie,10.32590281903456,56.7449568,-3.7793169
422,Braigh Coire Chruinn-bhalgain (Beinn a' Ghlo),1070.0,3510.0,294563.0,772403.0,Munro,Munro,Munro,Munro,Munro,Munro,Munro,Munro,Munro,Munro,Munro,56.831099235804764,-3.7295026409376297,Bridge of Tilt,9.698956342415855,56.7670162,-3.8375674
429,Carn Liath (Beinn a' Ghlo),976.0,3202.0,293607.0,769830.0,Munro,Munro,Munro,Munro,Munro,Munro,Munro,Munro,Munro,Munro,Munro,56.80777747883544,-3.744087019922664,Bridge of Tilt,7.277358871870147,56.7670162,-3.8375674
424,Glas Tulaichean,1051.0,3448.0,305105.0,776011.0,Munro,Munro,Munro,Munro,Munro,Munro,Munro,Munro,Munro,Munro,Munro,56.86577300863337,-3.5581648717586214,Spittal of Glenshee,8.351046787856696,56.8128883,-3.4606752
426,Carn an Righ,1029.0,3376.0,302871.0,777268.0,Munro,Munro,Munro,Munro,Munro,Munro,Munro,Munro,Munro,Munro,Munro,56.87659835445823,-3.5952735379239185,Spittal of Glenshee,10.825302658437476,56.8128883,-3.4606752
425,Beinn Iutharn Mhor,1045.0,3428.0,304566.0,779279.0,Munro,Munro,Munro,Munro,Munro,Munro,Munro,Munro,Munro,Munro,Munro,56.89500915796815,-3.568231045574797,Spittal of Glenshee,11.23140957670105,56.8128883,-3.4606752
427,Beinn Iutharn Mhor - Mam nan Carn,986.0,3235.0,304900.0,777966.0,Munro Top,Munro Top,Munro Top,Munro Top,Munro Top,Munro Top,Munro Top,Munro Top,Munro Top,Munro Top,Munro Top,56.883287044040195,-3.562258287426568,Spittal of Glenshee,9.97163856079415,56.8128883,-3.4606752
430,Beinn Iutharn Mhor - Beinn Iutharn Bheag,953.0,3127.0,306522.0,779124.0,Munro,Munro Top,Munro Top,Munro Top,Munro Top,Munro Top,Munro Top,Munro Top,Munro Top,Munro Top,Munro Top,56.89401600653909,-3.5360781875178757,Spittal of Glenshee,10.119064973424829,56.8128883,-3.4606752
432,Carn Bhac,945.1,3101.0,305104.0,783225.0,Munro Top,Munro,Munro,Munro,Munro,Munro,Munro,Munro,Munro,Munro,Munro,56.930554797197374,-3.560881667044263,Braemar,12.863802300506618,57.0058223,-3.399713
436,Carn Bhac SW Top,918.1,3012.0,304120.0,782765.0,Munro,Munro Top,Munro Top,Munro Top,Munro Top,Munro Top,Munro Top,Munro Top,Munro Top,Munro Top,Munro Top,56.926221177889225,-3.5768687553961587,Braemar,13.916197252320881,57.0058223,-3.399713
440,Carn Bhac - Carn a' Bhutha,905.9,2972.0,303375.0,782002.0,Unclassified,Unclassified,Unclassified,Unclassified,Unclassified,Unclassified,Unclassified,Unclassified,Unclassified,Unclassified,Unclassified,56.91921458273477,-3.588812013054571,Spittal of Glenshee,14.157510301622281,56.8128883,-3.4606752
433,An Socach,944.0,3097.0,307938.0,780016.0,Munro Top,Munro Top,Munro Top,Munro Top,Munro Top,Munro,Munro,Munro,Munro,Munro,Munro,56.90230989812074,-3.513167546788846,Spittal of Glenshee,10.442758720395547,56.8128883,-3.4606752
434,An Socach East Top,938.0,3077.0,309898.0,780579.0,Munro,Munro,Munro,Munro,Munro,Munro Top,Munro Top,Munro Top,Munro Top,Munro Top,Munro Top,56.907751276165165,-3.4811993085355804,Spittal of Glenshee,10.621808292798145,56.8128883,-3.4606752
428,Carn a' Gheoidh,975.0,3199.0,310703.0,776700.0,Munro,Munro,Munro,Munro,Munro,Munro,Munro,Munro,Munro,Munro,Munro,56.8730721207722,-3.4666194734339495,Spittal of Glenshee,6.701892798572521,56.8128883,-3.4606752
437,Carn a' Gheoidh - Carn nan Sac,919.5,3017.0,311948.0,776955.0,Munro Top,Munro Top,Munro Top,Munro Top,Munro Top,Munro Top,Munro Top,Munro Top,Munro Top,Munro Top,Munro Top,56.875600262912535,-3.446290004893352,Spittal of Glenshee,7.0279133726156235,56.8128883,-3.4606752
439,Carn a' Gheoidh - Carn Bhinnein,917.0,3009.0,309135.0,776283.0,Munro,Munro Top,Munro Top,Munro Top,Munro Top,Munro Top,Munro Top,Munro Top,Munro Top,Munro Top,Munro Top,56.86902268649754,-3.492184900723543,Spittal of Glenshee,6.529428306808951,56.8128883,-3.4606752
435,The Cairnwell,933.0,3061.0,313486.0,777360.0,Munro,Munro,Munro,Munro,Munro,Munro,Munro,Munro,Munro,Munro,Munro,56.87952697861068,-3.4212029890584836,Spittal of Glenshee,7.788969870691909,56.8128883,-3.4606752
438,Carn Aosda,915.3,3003.0,313397.0,779164.0,Munro,Munro,Munro,Munro,Munro,Munro,Munro,Munro,Munro,Munro,Munro,56.89571138090999,-3.423278781571207,Spittal of Glenshee,9.486010254126745,56.8128883,-3.4606752
457,Cac Carn Beag (Lochnagar),1155.7,3792.0,324372.0,786140.0,Munro,Munro,Munro,Munro,Munro,Munro,Munro,Munro,Munro,Munro,Munro,56.960286252599985,-3.2452531599444083,Crathie,8.99733265012391,57.0395016,-3.214963
458,Cac Carn Beag (Lochnagar) - Cac Carn Mor,1151.3,3777.0,324517.0,785687.0,Munro Top,Munro Top,Munro Top,Munro Top,Munro Top,Munro Top,Munro Top,Munro Top,Munro Top,Munro Top,Munro Top,56.956241496661484,-3.242733963581697,Crathie,9.409640859564039,57.0395016,-3.214963
460,Cac Carn Beag (Lochnagar) - Cuidhe Crom,1083.2,3554.0,325995.0,784923.0,Munro Top,Munro Top,Munro Top,Munro Top,Munro Top,Munro Top,Munro Top,Munro Top,Munro Top,Munro Top,Munro Top,56.949618891848345,-3.2182147601738627,Crathie,9.996441656588793,57.0395016,-3.214963
475,Cac Carn Beag (Lochnagar) - Meikle Pap,980.0,3215.0,325991.0,786061.0,Munro Top,Munro Top,Munro Top,Munro Top,Munro Top,Munro Top,Munro Top,Munro Top,Munro Top,Munro Top,Munro Top,56.95983891775426,-3.218614068171277,Crathie,8.86084539615733,57.0395016,-3.214963
476,Cac Carn Beag (Lochnagar) - Meall Coire na Saobhaidhe,974.0,3196.0,324251.0,787298.0,Munro Top,Munro Top,Munro Top,Munro Top,Munro Top,Munro Top,Munro Top,Munro Top,Munro Top,Munro Top,Munro Top,56.970666590514405,-3.247589988805237,Crathie,7.904968007676438,57.0395016,-3.214963
481,Cac Carn Beag (Lochnagar) - Little Pap,956.0,3136.0,326465.0,784438.0,Munro Top,Munro Top,Munro Top,Munro Top,Munro Top,Munro Top,Munro Top,Munro Top,Munro Top,Munro Top,Munro Top,56.94533798293659,-3.210349074256562,Crathie,10.474245809574773,57.0395016,-3.214963
459,Carn a' Choire Bhoidheach,1109.9,3641.0,322673.0,784557.0,Munro,Munro,Munro,Munro,Munro,Munro,Munro,Munro,Munro,Munro,Munro,56.945787991657895,-3.2726990575876536,Braemar,10.188611453119101,57.0058223,-3.399713
462,Carn a' Choire Bhoidheach - Creag a' Ghlas-uillt,1066.9,3500.0,324209.0,784239.0,Munro Top,Munro Top,Munro Top,Munro Top,Munro Top,Munro Top,Munro Top,Munro Top,Munro Top,Munro Top,Munro Top,56.943186358843235,-3.2473623112875702,Crathie,10.888106376394214,57.0395016,-3.214963
464,Carn a' Choire Bhoidheach - Eagles Rock [Eagle's Rock],1049.2,3442.0,323712.0,783854.0,Unclassified,Munro Top,Munro Top,Munro Top,Munro Top,Munro Top,Munro Top,Munro Top,Munro Top,Munro Top,Munro Top,56.939646874417136,-3.255412801978082,Crathie,11.370507412032087,57.0395016,-3.214963
466,Carn a' Choire Bhoidheach - Carn an t-Sagairt Beag,1044.3,3426.0,321659.0,784863.0,Munro Top,Munro Top,Munro Top,Munro Top,Munro Top,Munro Top,Munro Top,Munro Top,Munro Top,Munro Top,Munro Top,56.948365463116296,-3.289456954769001,Braemar,9.244370284717567,57.0058223,-3.399713
465,Carn an t-Sagairt Mor,1047.0,3435.0,320810.0,784280.0,Munro,Munro,Munro,Munro,Munro,Munro,Munro,Munro,Munro,Munro,Munro,56.942984892395074,-3.303226688194609,Braemar,9.111107664563814,57.0058223,-3.399713
461,Glas Maol,1068.0,3504.0,316699.0,776576.0,Munro,Munro,Munro,Munro,Munro,Munro,Munro,Munro,Munro,Munro,Munro,56.87307456714667,-3.368241978551669,Spittal of Glenshee,8.740085469930694,56.8128883,-3.4606752
477,Glas Maol - Little Glas Maol,973.0,3192.0,317590.0,775960.0,Munro Top,Munro Top,Munro Top,Munro Top,Munro Top,Munro Top,Munro Top,Munro Top,Munro Top,Munro Top,Munro Top,56.86770156910033,-3.3534291301330255,Spittal of Glenshee,8.927221627027482,56.8128883,-3.4606752
488,Glas Maol - Meall Odhar,922.0,3025.0,315596.0,777353.0,Munro Top,Munro Top,Munro Top,Munro Top,Munro Top,Munro Top,Munro Top,Munro Top,Munro Top,Munro Top,Munro Top,56.879853132486964,-3.386589985889023,Spittal of Glenshee,8.70298039595566,56.8128883,-3.4606752
472,Creag Leacach,988.2,3242.0,315468.0,774548.0,Munro,Munro,Munro,Munro,Munro,Munro,Munro,Munro,Munro,Munro,Munro,56.854638735269376,-3.3877560178710917,Spittal of Glenshee,6.420928662123306,56.8128883,-3.4606752
484,Creag Leacach SW Top,943.7,3096.0,314941.0,774171.0,Unclassified,Unclassified,Unclassified,Unclassified,Unclassified,Unclassified,Munro Top,Munro Top,Munro Top,Munro Top,Munro Top,56.851156669746224,-3.3962685918135582,Spittal of Glenshee,5.784362952736495,56.8128883,-3.4606752
463,Cairn of Claise,1064.0,3491.0,318549.0,778890.0,Munro,Munro,Munro,Munro,Munro,Munro,Munro,Munro,Munro,Munro,Munro,56.894185169669896,-3.3386436691602683,Spittal of Glenshee,11.694692249986486,56.8128883,-3.4606752
478,Cairn of Claise - Druim Mor,961.0,3153.0,318999.0,777147.0,Munro Top,Munro Top,Munro Top,Munro Top,Munro Top,Munro Top,Munro Top,Munro Top,Munro Top,Munro Top,Munro Top,56.8786102635377,-3.3307025521771543,Spittal of Glenshee,10.764641292827369,56.8128883,-3.4606752
467,Carn an Tuirc,1019.0,3343.0,317454.0,780482.0,Munro,Munro,Munro,Munro,Munro,Munro,Munro,Munro,Munro,Munro,Munro,56.908288844481966,-3.357131026269979,Braemar,11.148296911345243,57.0058223,-3.399713
480,Tom Buidhe,957.0,3140.0,321367.0,778774.0,Munro,Munro,Munro,Munro,Munro,Munro,Munro,Munro,Munro,Munro,Munro,56.89363030255399,-3.292363719687819,Clova,12.689010786655484,56.8441699,-3.1042052
479,Tolmount,958.0,3143.0,321051.0,780018.0,Munro,Munro,Munro,Munro,Munro,Munro,Munro,Munro,Munro,Munro,Munro,56.904748992177865,-3.297936811796917,Braemar,12.821609880479281,57.0058223,-3.399713
489,Tolmount - Crow Craigies,920.0,3018.0,322204.0,779867.0,Munro Top,Munro Top,Munro Top,Munro Top,Munro Top,Munro Top,Munro Top,Munro Top,Munro Top,Munro Top,Munro Top,56.90358800477941,-3.278964000550219,Clova,12.506980384650983,56.8441699,-3.1042052
468,Cairn Bannoch,1012.0,3320.0,322288.0,782555.0,Munro,Munro,Munro,Munro,Munro,Munro,Munro,Munro,Munro,Munro,Munro,56.927743324089555,-3.2784103490525522,Braemar,11.3771768559555,57.0058223,-3.399713
469,Cairn Bannoch - Fafernie,1000.0,3281.0,321513.0,782316.0,Munro Top,Munro Top,Munro Top,Munro Top,Munro Top,Munro Top,Munro Top,Munro Top,Munro Top,Munro Top,Munro Top,56.92546601762304,-3.291065573327769,Braemar,11.100079464012945,57.0058223,-3.399713
482,Cairn Bannoch - Creag Leachdach,957.0,3140.0,321010.0,781628.0,Munro Top,Munro Top,Munro Top,Munro Top,Munro Top,Munro Top,Munro Top,Munro Top,Munro Top,Munro Top,Munro Top,56.9192014708853,-3.29911205386602,Braemar,11.400213291076406,57.0058223,-3.399713
471,Cairn Bannoch - Cairn of Gowal,991.0,3251.0,322671.0,782088.0,Munro Top,Munro Top,Munro Top,Munro Top,Munro Top,Munro Top,Munro Top,Munro Top,Munro Top,Munro Top,Munro Top,56.923613324858565,-3.2719767866950673,Braemar,11.97992671220056,57.0058223,-3.399713
474,Cairn Bannoch - Cairn of Gowal South Top,983.0,3225.0,322789.0,781668.0,Unclassified,Unclassified,Unclassified,Unclassified,Unclassified,Munro Top,Munro Top,Munro Top,Munro Top,Munro Top,Munro Top,56.91986095881131,-3.2699106839922405,Braemar,12.38072942895345,57.0058223,-3.399713
487,Cairn Bannoch - Craig of Gowal,927.0,3041.0,323194.0,780900.0,Munro Top,Munro Top,Munro Top,Munro Top,Munro Top,Munro Top,Munro Top,Munro Top,Munro Top,Munro Top,Munro Top,56.9130308296025,-3.26302686724389,Clova,12.318581825320452,56.8441699,-3.1042052
470,Broad Cairn,998.0,3274.0,324056.0,781567.0,Munro,Munro,Munro,Munro,Munro,Munro,Munro,Munro,Munro,Munro,Munro,56.919163531372256,-3.249073987630721,Clova,12.124361288282937,56.8441699,-3.1042052
473,Broad Cairn - Creag an Dubh-loch,983.0,3225.0,323283.0,782319.0,Munro Top,Munro Top,Munro Top,Munro Top,Munro Top,Munro Top,Munro Top,Munro Top,Munro Top,Munro Top,Munro Top,56.925789851749194,-3.2619957429381934,Braemar,12.201815884598762,57.0058223,-3.399713
486,Mayar,928.0,3045.0,324083.0,773748.0,Munro,Munro,Munro,Munro,Munro,Munro,Munro,Munro,Munro,Munro,Munro,56.848943507994896,-3.2462904788395686,Clova,8.656582495565182,56.8441699,-3.1042052
483,Driesh,947.0,3107.0,327116.0,773588.0,Munro,Munro,Munro,Munro,Munro,Munro,Munro,Munro,Munro,Munro,Munro,56.84799284379893,-3.196530701253964,Clova,5.630512279696098,56.8441699,-3.1042052
485,Mount Keen,939.0,3081.0,340905.0,786927.0,Munro,Munro,Munro,Munro,Munro,Munro,Munro,Munro,Munro,Munro,Munro,56.96976612287533,-2.973619650145898,Ballater,9.748020321979235,57.0495064,-3.0405173
571,Mullach Clach a' Bhlair,1019.0,3343.0,288285.0,792702.0,Munro,Munro,Munro,Munro,Munro,Munro,Munro,Munro,Munro,Munro,Munro,57.011890841540755,-3.841283894018929,Insh,11.263158939852756,57.0907071,-3.9582648
580,Mullach Clach a' Bhlair - Diollaid Coire Eindart,974.0,3196.0,290400.0,792757.0,Munro Top,Munro Top,Munro Top,Munro Top,Munro Top,Munro Top,Munro Top,Munro Top,Munro Top,Munro Top,Munro Top,57.01289196078902,-3.806499162081126,Insh,12.61385265424836,57.0907071,-3.9582648
591,Mullach Clach a' Bhlair - Druim nam Bo,918.0,3012.0,287388.0,792129.0,Munro Top,Munro Top,Munro Top,Munro Top,Munro Top,Munro Top,Munro Top,Munro Top,Munro Top,Munro Top,Munro Top,57.00652809634764,-3.855790061641125,Insh,11.22623507137961,57.0907071,-3.9582648
548,Sgor Gaoith,1118.0,3668.0,290300.0,798961.0,Munro,Munro,Munro,Munro,Munro,Munro,Munro,Munro,Munro,Munro,Munro,57.068571917146244,-3.810854083195603,Insh,9.242011033628973,57.0907071,-3.9582648
551,Sgor Gaoith - Sgoran Dubh Mor,1111.0,3645.0,290498.0,800276.0,Munro Top,Munro Top,Munro Top,Munro Top,Munro Top,Munro Top,Munro Top,Munro Top,Munro Top,Munro Top,Munro Top,57.08042596547939,-3.8081648678149937,Kincraig,9.087839442005636,57.1274984,-3.9311803
565,Sgor Gaoith - Carn Ban Mor,1052.0,3451.0,289378.0,797203.0,Munro,Munro,Munro,Munro,Munro,Munro,Munro Top,Munro Top,Munro Top,Munro Top,Munro Top,57.05256696579106,-3.825276288630068,Insh,9.088570338117513,57.0907071,-3.9582648
576,Sgor Gaoith - Meall Dubhag,998.0,3274.0,288042.0,795552.0,Munro,Munro,Munro,Munro,Munro,Munro,Munro Top,Munro Top,Munro Top,Munro Top,Munro Top,57.03742071947631,-3.8465518671690204,Insh,8.984517065981622,57.0907071,-3.9582648
579,Sgor Gaoith - Meall Buidhe,976.0,3202.0,289158.0,800172.0,Munro Top,Munro Top,Munro Top,Munro Top,Munro Top,Munro Top,Munro Top,Munro Top,Munro Top,Munro Top,Munro Top,57.07917137503304,-3.830213055441481,Insh,7.842847698910912,57.0907071,-3.9582648
589,Sgor Gaoith - Geal-charn,920.0,3018.0,288404.0,801414.0,Munro,Munro,Munro,Munro,Munro,Munro,Munro Top,Munro Top,Munro Top,Munro Top,Munro Top,57.09014037936041,-3.8431979197524435,Kincraig,6.743949060389957,57.1274984,-3.9311803
519,Braeriach,1296.0,4252.0,295328.0,799916.0,Munro,Munro,Munro,Munro,Munro,Munro,Munro,Munro,Munro,Munro,Munro,57.078317613931034,-3.7283727040451953,Kincraig,13.413645991029469,57.1274984,-3.9311803
526,Braeriach - Stob Coire an Lochain,1235.0,4052.0,294028.0,799726.0,Munro Top,Munro Top,Munro Top,Munro Top,Munro Top,Munro Top,Munro Top,Munro Top,Munro Top,Munro Top,Munro Top,57.076314080766586,-3.749726747302417,Kincraig,12.348686998571354,57.1274984,-3.9311803
522,Braeriach - Carn na Criche,1265.0,4150.0,293934.0,798267.0,Munro Top,Munro Top,Munro Top,Munro Top,Munro Top,Munro Top,Munro Top,Munro Top,Munro Top,Munro Top,Munro Top,57.06319217800359,-3.7506593508556465,Insh,12.91443881603023,57.0907071,-3.9582648
530,Braeriach - Sron na Lairige,1184.0,3885.0,296427.0,800625.0,Munro Top,Munro Top,Munro Top,Munro Top,Munro Top,Munro Top,Munro Top,Munro Top,Munro Top,Munro Top,Munro Top,57.084932470202716,-3.710545190271913,Aviemore,14.04558120645478,57.1937528,-3.8287496
523,Sgor an Lochain Uaine,1258.0,4127.0,295422.0,797693.0,Munro,Munro Top,Munro Top,Munro Top,Munro Top,Munro Top,Munro Top,Munro Top,Munro Top,Munro,Munro,57.05837857689119,-3.7258957121647187,Insh,14.497072500539485,57.0907071,-3.9582648
521,Cairn Toul,1291.0,4236.0,296328.0,797229.0,Munro,Munro,Munro,Munro,Munro,Munro,Munro,Munro,Munro,Munro,Munro,57.05441711437515,-3.7107736502988886,Insh,15.493790028859301,57.0907071,-3.9582648
528,Cairn Toul - Stob Coire an t-Saighdeir,1213.0,3980.0,296270.0,796360.0,Munro Top,Munro Top,Munro Top,Munro Top,Munro Top,Munro Top,Munro Top,Munro Top,Munro Top,Munro Top,Munro Top,57.04660118537986,-3.7113702917982403,Insh,15.709746259919632,57.0907071,-3.9582648
575,The Devil's Point,1006.9,3303.0,297609.0,795115.0,Munro,Munro,Munro,Munro,Munro,Munro,Munro,Munro,Munro,Munro,Munro,57.0357215476374,-3.6888035791586216,Insh,17.400657776306954,57.0907071,-3.9582648
549,Monadh Mor,1113.0,3652.0,293866.0,794217.0,Munro,Munro,Munro,Munro,Munro,Munro,Munro,Munro,Munro,Munro,Munro,57.02681172745727,-3.750068522029076,Insh,14.455217067687006,57.0907071,-3.9582648
590,Monadh Mor - Tom Dubh,918.0,3012.0,292143.0,795278.0,Munro Top,Munro Top,Munro Top,Munro Top,Munro Top,Munro Top,Munro Top,Munro Top,Munro Top,Munro Top,Munro Top,57.03593845433502,-3.778892851126811,Insh,12.43745953186589,57.0907071,-3.9582648
577,Monadh Mor - Leth-chreag,985.0,3232.0,292186.0,793909.0,Munro Top,Munro Top,Munro Top,Munro Top,Munro Top,Munro Top,Munro Top,Munro Top,Munro Top,Munro Top,Munro Top,57.023656468848415,-3.777597574063904,Insh,13.2262502831208,57.0907071,-3.9582648
538,Beinn Bhrotain,1157.0,3796.0,295413.0,792292.0,Munro,Munro,Munro,Munro,Munro,Munro,Munro,Munro,Munro,Munro,Munro,57.00988042622031,-3.7237963489194907,Insh,16.78870585835057,57.0907071,-3.9582648
585,Beinn Bhrotain - Carn Cloich-mhuilinn,942.0,3091.0,296861.0,790686.0,Munro,Munro,Munro,Munro,Munro,Munro,Munro Top,Munro Top,Munro Top,Munro Top,Munro Top,56.99578571458707,-3.6993072832686176,Braemar,18.17764314762428,57.0058223,-3.399713
567,Carn a' Mhaim,1037.0,3402.0,299458.0,795199.0,Munro,Munro,Munro,Munro,Munro,Munro,Munro,Munro,Munro,Munro,Munro,57.03688288255628,-3.6583844631717692,Braemar,16.032849442554536,57.0058223,-3.399713
518,Ben Macdui [Beinn Macduibh],1309.0,4295.0,298899.0,798943.0,Munro,Munro,Munro,Munro,Munro,Munro,Munro,Munro,Munro,Munro,Munro,57.07037921430749,-3.6690995123294927,Aviemore,16.763531163544176,57.1937528,-3.8287496
520,Ben Macdui North Top,1295.0,4249.0,299125.0,799565.0,Munro Top,Munro Top,Munro Top,Munro Top,Munro Top,Munro Top,Munro Top,Munro Top,Munro Top,Munro Top,Munro Top,57.07601393504941,-3.6656241777050558,Aviemore,16.379502014959503,57.1937528,-3.8287496
546,Ben Macdui - Carn Etchachan,1120.0,3675.0,300311.0,800908.0,Munro Top,Munro Top,Munro Top,Munro Top,Munro Top,Munro Top,Munro Top,Munro Top,Munro Top,Munro Top,Munro Top,57.08833171080305,-3.646604080592514,Aviemore,16.067723310409928,57.1937528,-3.8287496
524,Ben Macdui - Stob Coire Sputan Dearg,1249.0,4098.0,299799.0,798467.0,Munro Top,Munro Top,Munro Top,Munro Top,Munro Top,Munro Top,Munro Top,Munro Top,Munro Top,Munro Top,Munro Top,57.066301838355336,-3.654072578460535,Braemar,16.794579143815,57.0058223,-3.399713
552,Ben Macdui - Sron Riach,1113.0,3652.0,299993.0,797795.0,Munro Top,Munro Top,Munro Top,Munro Top,Munro Top,Munro Top,Munro Top,Munro Top,Munro Top,Munro Top,Munro Top,57.06030986850773,-3.6506068483081595,Braemar,16.345265731667098,57.0058223,-3.399713
525,Cairn Gorm,1244.8,4084.0,300516.0,804065.0,Munro,Munro,Munro,Munro,Munro,Munro,Munro,Munro,Munro,Munro,Munro,57.116723976011286,-3.6444783230203197,Aviemore,14.030787524653551,57.1937528,-3.8287496
527,Cairn Gorm - Cairn Lochan,1216.0,3990.0,298510.0,802556.0,Munro Top,Munro Top,Munro Top,Munro Top,Munro Top,Munro Top,Munro Top,Munro Top,Munro Top,Munro Top,Munro Top,57.10273563242497,-3.676976310257356,Aviemore,13.646963693212802,57.1937528,-3.8287496
556,Cairn Gorm - Fiacaill Coire an t-Sneachda,1122.0,3681.0,298852.0,803299.0,Munro Top,Munro Top,Munro Top,Munro Top,Munro Top,Munro Top,Munro Top,Munro Top,Munro Top,Munro Top,Munro Top,57.109482584304764,-3.671633949425892,Aviemore,13.326840937843947,57.1937528,-3.8287496
534,Cairn Gorm - Stob Coire an t-Sneachda,1176.0,3858.0,299625.0,802985.0,Munro Top,Munro Top,Munro Top,Munro Top,Munro Top,Munro Top,Munro Top,Munro Top,Munro Top,Munro Top,Munro Top,57.10683255741714,-3.6587514445831117,Aviemore,14.090818905702818,57.1937528,-3.8287496
542,Cairn Gorm - Fiacaill a' Choire Chais,1141.0,3743.0,299894.0,803991.0,Munro Top,Munro Top,Munro Top,Munro Top,Munro Top,Munro Top,Munro Top,Munro Top,Munro Top,Munro Top,Munro Top,57.11592441021764,-3.6547153220168336,Aviemore,13.60351525823988,57.1937528,-3.8287496
540,Cairn Gorm - Cnap Coire na Spreidhe,1150.0,3773.0,301350.0,804908.0,Munro Top,Munro Top,Munro Top,Munro Top,Munro Top,Munro Top,Munro Top,Munro Top,Munro Top,Munro Top,Munro Top,57.12447343906133,-3.6310451104215984,Aviemore,14.19425468230299,57.1937528,-3.8287496
568,Cairn Gorm - Sron a' Cha-no,1028.0,3373.0,301637.0,806120.0,Munro Top,Munro Top,Munro Top,Munro Top,Munro Top,Munro Top,Munro Top,Munro Top,Munro Top,Munro Top,Munro Top,57.13541803551654,-3.6267842583554044,Aviemore,13.796969223634914,57.1937528,-3.8287496
564,Cairn Gorm - Creag an Leth-choin [Lurcher's Crag],1053.0,3455.0,296838.0,803340.0,Munro,Munro Top,Munro Top,Munro Top,Munro Top,Munro Top,Munro Top,Munro Top,Munro Top,Munro Top,Munro Top,57.109403084462464,-3.7048863548406117,Aviemore,11.990910157847004,57.1937528,-3.8287496
569,Cairn Gorm - Creag an Leth-choin North Top,1026.0,3366.0,296875.0,803965.0,Munro Top,Munro Top,Munro Top,Munro Top,Munro Top,Munro Top,Munro Top,Munro Top,Munro Top,Munro Top,Munro Top,57.115023313680304,-3.7045335503387165,Aviemore,11.522125883815955,57.1937528,-3.8287496
560,Cairn Gorm - Fiacaill na Leth-choin,1083.0,3553.0,297523.0,802435.0,Unclassified,Munro Top,Munro Top,Munro Top,Munro Top,Munro Top,Munro Top,Munro Top,Munro Top,Munro Top,Munro Top,57.10143020276873,-3.6932115699545407,Aviemore,13.123620337375932,57.1937528,-3.8287496
557,Bynack More,1090.0,3576.0,304190.0,806373.0,Munro,Munro,Munro,Munro,Munro,Munro,Munro,Munro,Munro,Munro,Munro,57.13822973847885,-3.5847194109192135,Nethy Bridge,14.76093074798993,57.2649841,-3.6575274
573,Bynack More - A' Choinneach,1017.0,3337.0,303207.0,804833.0,Munro,Munro,Munro,Munro,Munro,Munro,Munro Top,Munro Top,Munro Top,Munro Top,Munro Top,57.124195062170735,-3.600357560648883,Aviemore,15.795695982097648,57.1937528,-3.8287496
582,Bynack More - Bynack Beg,970.0,3182.0,303633.0,806841.0,Unclassified,Unclassified,Unclassified,Unclassified,Unclassified,Unclassified,Munro Top,Munro Top,Munro Top,Munro Top,Munro Top,57.14231557559486,-3.594099491590016,Nethy Bridge,14.164985214337603,57.2649841,-3.6575274
531,Beinn Mheadhoin,1182.9,3881.0,302460.0,801695.0,Munro,Munro,Munro,Munro,Munro,Munro,Munro,Munro,Munro,Munro,Munro,57.09585935489388,-3.611466114929845,Braemar,16.25542271316418,57.0058223,-3.399713
537,Beinn Mheadhoin SW Top,1163.0,3816.0,301850.0,801164.0,Munro Top,Munro Top,Munro Top,Munro Top,Munro Top,Munro Top,Munro Top,Munro Top,Munro Top,Munro Top,Munro Top,57.090961445283476,-3.6213209925291423,Braemar,16.40958865852442,57.0058223,-3.399713
561,Beinn Mheadhoin - Stob Coire Etchachan,1082.0,3550.0,302476.0,800531.0,Munro Top,Munro Top,Munro Top,Munro Top,Munro Top,Munro Top,Munro Top,Munro Top,Munro Top,Munro Top,Munro Top,57.08541056808545,-3.6107487627592794,Braemar,15.53258205154325,57.0058223,-3.399713
574,Beinn Mheadhoin - Stacan Dubha,1014.0,3327.0,301191.0,801528.0,Unclassified,Munro Top,Munro Top,Munro Top,Munro Top,Munro Top,Munro Top,Munro Top,Munro Top,Munro Top,Munro Top,57.09408885037971,-3.6323345914156837,Aviemore,16.223851807092988,57.1937528,-3.8287496
539,Derry Cairngorm,1155.0,3789.0,301734.0,798032.0,Munro,Munro,Munro,Munro,Munro,Munro,Munro,Munro,Munro,Munro,Munro,57.06281286537921,-3.622006225401275,Braemar,14.868017942393864,57.0058223,-3.399713
554,Derry Cairngorm - Creagan a' Choire Etchachan,1108.0,3635.0,301194.0,799619.0,Munro Top,Munro Top,Munro Top,Munro Top,Munro Top,Munro Top,Munro Top,Munro Top,Munro Top,Munro Top,Munro Top,57.076947722958856,-3.6315319986277803,Braemar,16.099990640009175,57.0058223,-3.399713
578,Derry Cairngorm - Sgurr an Lochan Uaine,983.0,3225.0,302556.0,799110.0,Unclassified,Munro Top,Munro Top,Munro Top,Munro Top,Munro Top,Munro Top,Munro Top,Munro Top,Munro Top,Munro Top,57.072667565261106,-3.608876741949494,Braemar,14.67536266479409,57.0058223,-3.399713
566,Derry Cairngorm - Little Cairngorm,1040.0,3412.0,302020.0,797242.0,Unclassified,Munro Top,Munro Top,Munro Top,Munro Top,Munro Top,Munro Top,Munro Top,Munro Top,Munro Top,Munro Top,57.055779971670205,-3.6169837875106468,Braemar,14.272657690807348,57.0058223,-3.399713
587,Beinn Bhreac,931.0,3054.0,305870.0,797075.0,Munro,Munro,Munro,Munro,Munro,Munro,Munro,Munro,Munro,Munro,Munro,57.05508340443988,-3.553474962196088,Braemar,10.796998085711616,57.0058223,-3.399713
588,Beinn Bhreac West Top,927.0,3041.0,305284.0,797202.0,Munro Top,Munro Top,Munro Top,Munro Top,Munro Top,Munro Top,Munro Top,Munro Top,Munro Top,Munro Top,Munro Top,57.056103684881805,-3.563179725797049,Braemar,11.362264082991448,57.0058223,-3.399713
559,Beinn a' Chaorainn,1083.0,3553.0,304515.0,801360.0,Munro,Munro,Munro,Munro,Munro,Munro,Munro,Munro,Munro,Munro,Munro,57.09328250534962,-3.5774366782067655,Braemar,14.495333583047225,57.0058223,-3.399713
572,Beinn a' Chaorainn - Beinn a' Chaorainn Bheag,1017.0,3337.0,305727.0,801717.0,Munro Top,Munro Top,Munro Top,Munro Top,Munro Top,Munro Top,Munro Top,Munro Top,Munro Top,Munro Top,Munro Top,57.096738352432865,-3.557577779259661,Braemar,13.905052521735886,57.0058223,-3.399713
536,Leabaidh an Daimh Bhuidhe (Ben Avon),1172.0,3845.0,313193.0,801845.0,Munro,Munro,Munro,Munro,Munro,Munro,Munro,Munro,Munro,Munro,Munro,57.09935815986442,-3.434444123725096,Braemar,10.61067507869653,57.0058223,-3.399713
563,Leabaidh an Daimh Bhuidhe (Ben Avon) - Stob Dubh an Eas Bhig,1061.0,3481.0,313352.0,800239.0,Munro Top,Munro Top,Munro Top,Munro Top,Munro Top,Munro Top,Munro Top,Munro Top,Munro Top,Munro Top,Munro Top,57.08496582578729,-3.4312646970611573,Braemar,9.004919617070726,57.0058223,-3.399713
543,Leabaidh an Daimh Bhuidhe (Ben Avon) - Ben Avon SW Top,1137.6,3732.0,312595.0,801359.0,Munro Top,Munro Top,Munro Top,Munro Top,Munro Top,Munro Top,Munro Top,Munro Top,Munro Top,Munro Top,Munro Top,57.09488045470142,-3.444141221519861,Braemar,10.260876805510275,57.0058223,-3.399713
562,Leabaidh an Daimh Bhuidhe (Ben Avon) - Stob Bac an Fhurain,1076.0,3530.0,313672.0,803332.0,Munro Top,Munro Top,Munro Top,Munro Top,Munro Top,Munro Top,Munro Top,Munro Top,Munro Top,Munro Top,Munro Top,57.11280204305336,-3.4270540096464885,Braemar,12.009926988118849,57.0058223,-3.399713
544,Leabaidh an Daimh Bhuidhe (Ben Avon) - Mullach Lochan nan Gabhar,1124.0,3688.0,314327.0,802147.0,Munro Top,Munro Top,Munro Top,Munro Top,Munro Top,Munro Top,Munro Top,Munro Top,Munro Top,Munro Top,Munro Top,57.10228297107975,-3.415836620331747,Braemar,10.77016439439477,57.0058223,-3.399713
545,Leabaidh an Daimh Bhuidhe (Ben Avon) - Stuc Gharbh Mhor,1119.2,3672.0,314733.0,801308.0,Unclassified,Unclassified,Unclassified,Unclassified,Unclassified,Munro Top,Munro Top,Munro Top,Munro Top,Munro Top,Munro Top,57.09482394817729,-3.4088511578996328,Braemar,9.911951478024486,57.0058223,-3.399713
550,Leabaidh an Daimh Bhuidhe (Ben Avon) - Stuc Gharbh Mhor (old GR),1112.0,3648.0,314664.0,801684.0,Munro Top,Munro Top,Munro Top,Munro Top,Munro Top,Munro Top,Munro Top,Munro Top,Munro Top,Munro Top,Munro Top,57.09818776097181,-3.410117747686628,Braemar,10.289828297376793,57.0058223,-3.399713
570,Leabaidh an Daimh Bhuidhe (Ben Avon) - West Meur Gorm Craig,1023.1,3357.0,315342.0,803670.0,Munro Top,Munro Top,Munro Top,Munro Top,Munro Top,Munro Top,Munro Top,Munro Top,Munro Top,Munro Top,Munro Top,57.11614816999282,-3.399603444667224,Braemar,12.267678809129865,57.0058223,-3.399713
584,Leabaidh an Daimh Bhuidhe (Ben Avon) - Big Brae,940.0,3084.0,316011.0,803290.0,Munro Top,Munro Top,Munro Top,Munro Top,Munro Top,Munro Top,Munro Top,Munro Top,Munro Top,Munro Top,Munro Top,57.11285841710436,-3.3884321580174928,Braemar,11.921402243191551,57.0058223,-3.399713
586,Leabaidh an Daimh Bhuidhe (Ben Avon) - East Meur Gorm Craig,935.3,3069.0,315928.0,804207.0,Munro Top,Munro Top,Munro Top,Munro Top,Munro Top,Munro Top,Munro Top,Munro Top,Munro Top,Munro Top,Munro Top,57.12107826895902,-3.390110681494865,Braemar,12.8290208033651,57.0058223,-3.399713
558,Leabaidh an Daimh Bhuidhe (Ben Avon) - Carn Eas,1089.0,3573.0,312265.0,799266.0,Munro,Munro Top,Munro Top,Munro Top,Munro Top,Munro Top,Munro Top,Munro Top,Munro Top,Munro Top,Munro Top,57.076021996258746,-3.4488521820850258,Braemar,8.352719833594431,57.0058223,-3.399713
581,Leabaidh an Daimh Bhuidhe (Ben Avon) - Creag an Dail Mhor,972.0,3189.0,313185.0,798225.0,Munro,Munro Top,Munro Top,Munro Top,Munro Top,Munro Top,Munro Top,Munro Top,Munro Top,Munro Top,Munro Top,57.06684801572786,-3.4333213101426905,Braemar,7.083853866370181,57.0058223,-3.399713
529,Beinn a' Bhuird North Top,1197.0,3927.0,309231.0,800621.0,Munro,Munro,Munro,Munro,Munro,Munro,Munro,Munro,Munro,Munro,Munro,57.08760139889202,-3.49937094974451,Braemar,10.909849286522018,57.0058223,-3.399713
533,Beinn a' Bhuird South Top (old GR),1177.0,3862.0,309022.0,797930.0,Munro Top,Munro Top,Munro Top,Munro Top,Munro Top,Munro Top,Munro Top,Munro Top,Munro Top,Munro Top,Munro Top,57.06339486515862,-3.501841247801686,Braemar,8.897515596186771,57.0058223,-3.399713
532,Beinn a' Bhuird South Top,1179.0,3868.0,309187.0,798610.0,Unclassified,Unclassified,Unclassified,Unclassified,Unclassified,Unclassified,Unclassified,Munro Top,Munro Top,Munro Top,Munro Top,57.06953387707911,-3.4993677719669973,Braemar,9.302616150586914,57.0058223,-3.399713
535,Beinn a' Bhuird - Cnap a' Chleirich,1174.0,3852.0,310761.0,801013.0,Munro Top,Munro Top,Munro Top,Munro Top,Munro Top,Munro Top,Munro Top,Munro Top,Munro Top,Munro Top,Munro Top,57.09142102628859,-3.4742744199631796,Braemar,10.532411845238054,57.0058223,-3.399713
555,Beinn a' Bhuird - Stob an t-Sluichd,1107.0,3632.0,311203.0,802743.0,Munro Top,Munro Top,Munro Top,Munro Top,Munro Top,Munro Top,Munro Top,Munro Top,Munro Top,Munro Top,Munro Top,57.10704221615744,-3.467597156416528,Braemar,11.980333232608281,57.0058223,-3.399713
541,Beinn a' Bhuird - A' Chioch,1151.0,3776.0,309780.0,798685.0,Unclassified,Munro Top,Munro Top,Munro Top,Munro Top,Munro Top,Munro Top,Munro Top,Munro Top,Munro Top,Munro Top,57.070324012987975,-3.48961846435589,Braemar,9.001457582200095,57.0058223,-3.399713
624,Geal Charn,926.0,3038.0,256144.0,798768.0,Munro,Munro,Munro,Munro,Munro,Munro,Munro,Munro,Munro,Munro,Munro,57.057436857560766,-4.373575432288819,Laggan,6.933498652510651,57.0192779,-4.2829357
621,Carn Dearg,945.7,3103.0,263568.0,802398.0,Munro,Munro,Munro,Munro,Munro,Munro,Munro,Munro,Munro,Munro,Munro,57.092278851868755,-4.253251816304909,Laggan,8.31343076694817,57.0192779,-4.2829357
622,Carn Dearg - Carn Ban,942.3,3092.0,263188.0,803178.0,Munro,Munro,Munro,Munro,Munro,Munro,Munro Top,Munro Top,Munro Top,Munro Top,Munro Top,57.09916735830822,-4.259943833736797,Laggan,8.991423913006454,57.0192779,-4.2829357
625,Carn Dearg SE Top,923.7,3031.0,263772.0,801763.0,Munro Top,Munro Top,Munro Top,Munro Top,Munro Top,Munro Top,Munro Top,Munro Top,Munro Top,Munro Top,Munro Top,57.086639439591934,-4.249542694046323,Laggan,7.757714998957078,57.0192779,-4.2829357
628,Carn Dearg - Sneachdach Slinnean,919.0,3015.0,262200.0,802700.0,Munro Top,Munro Top,Munro Top,Munro Top,Munro Top,Munro Top,Munro Top,Munro Top,Munro Top,Munro Top,Munro Top,57.09458189506382,-4.275974763565951,Laggan,8.383994880303963,57.0192779,-4.2829357
627,Carn Dearg - Carn Ballach (SW Top),919.8,3018.0,264353.0,804473.0,Munro,Munro,Munro,Munro,Munro,Munro,Munro Top,Munro Top,Munro Top,Munro Top,Munro Top,57.111136587813725,-4.241432359885782,Newtonmore,8.950272645605471,57.0655346,-4.1193593
629,Carn Dearg - Carn Ballach (NE Top),919.3,3016.0,264779.0,804824.0,Munro Top,Munro,Munro,Munro,Munro,Munro,Munro,Munro,Munro,Munro,Munro,57.11441273891586,-4.234594123964673,Newtonmore,8.83214266200251,57.0655346,-4.1193593
623,A' Chailleach,929.3,3049.0,268110.0,804178.0,Munro,Munro,Munro,Munro,Munro,Munro,Munro,Munro,Munro,Munro,Munro,57.109581718315766,-4.179293125772671,Newtonmore,6.09106345399017,57.0655346,-4.1193593
626,Carn Sgulain,920.3,3019.0,268302.0,805821.0,Munro,Munro,Munro,Munro,Munro,Munro,Munro,Munro,Munro,Munro,Munro,57.12438525657823,-4.176990990575977,Newtonmore,7.412299023672853,57.0655346,-4.1193593
658,Creag Meagaidh,1128.1,3701.0,241839.0,787545.0,Munro,Munro,Munro,Munro,Munro,Munro,Munro,Munro,Munro,Munro,Munro,56.95203434008544,-4.602130428678874,Roybridge,16.02090452693907,56.8913146,-4.8415287
659,Creag Meagaidh East Top,1116.1,3662.0,242436.0,787575.0,Munro Top,Munro Top,Munro Top,Munro Top,Munro Top,Munro Top,Munro Top,Munro Top,Munro Top,Munro Top,Munro Top,56.952507289558774,-4.592344603667063,Roybridge,16.58278905364643,56.8913146,-4.8415287
660,Creag Meagaidh - Puist Coire Ardair,1070.8,3513.0,243702.0,787275.0,Munro Top,Munro Top,Munro Top,Munro Top,Munro Top,Munro Top,Munro Top,Munro Top,Munro Top,Munro Top,Munro Top,56.95024450496434,-4.5713670301563205,Roybridge,17.657002280579324,56.8913146,-4.8415287
661,Creag Meagaidh - Creag Mhor,1069.7,3510.0,244221.0,787331.0,Munro Top,Munro Top,Munro Top,Munro Top,Munro Top,Munro Top,Munro Top,Munro Top,Munro Top,Munro Top,Munro Top,56.95092211890297,-4.562878215783014,Roybridge,18.163620585727653,56.8913146,-4.8415287
667,Creag Meagaidh - Meall Coire Choille-rais,1028.0,3373.0,243269.0,786270.0,Munro Top,Munro Top,Munro Top,Munro Top,Munro Top,Munro Top,Munro Top,Munro Top,Munro Top,Munro Top,Munro Top,56.94107894409942,-4.577855064653428,Roybridge,16.933920779743154,56.8913146,-4.8415287
669,Creag Meagaidh - Sron a' Choire,1001.8,3287.0,244838.0,787770.0,Munro Top,Munro Top,Munro Top,Munro Top,Munro Top,Munro Top,Munro Top,Munro Top,Munro Top,Munro Top,Munro Top,56.95506922195487,-4.55301470880598,Laggan,17.851802187028202,57.0192779,-4.2829357
671,Creag Meagaidh - An Cearcallach,993.1,3258.0,242249.0,785382.0,Munro Top,Munro Top,Munro Top,Munro Top,Munro Top,Munro Top,Munro Top,Munro Top,Munro Top,Munro Top,Munro Top,56.93276338589532,-4.59404800744542,Roybridge,15.714184489846552,56.8913146,-4.8415287
662,Stob Poite Coire Ardair,1054.0,3458.0,242884.0,788845.0,Munro Top,Munro,Munro,Munro,Munro,Munro,Munro,Munro,Munro,Munro,Munro,56.96405681227503,-4.585776662642328,Roybridge,17.500137733554734,56.8913146,-4.8415287
664,Stob Poite Coire Ardair East Top,1050.0,3445.0,243735.0,789209.0,Munro,Munro Top,Munro Top,Munro Top,Munro Top,Munro Top,Munro Top,Munro Top,Munro Top,Munro Top,Munro Top,56.967611809246876,-4.572021203339425,Invergarry,18.103216843955057,57.0697214,-4.8049621
670,Stob Poite Coire Ardair - Sron Coire a' Chriochairein,993.0,3258.0,244792.0,789925.0,Munro Top,Munro Top,Munro Top,Munro Top,Munro Top,Munro Top,Munro Top,Munro Top,Munro Top,Munro Top,Munro Top,56.97439348831531,-4.55509454106974,Laggan,17.222635686563088,57.0192779,-4.2829357
668,Carn Liath,1006.0,3301.0,247229.0,790325.0,Munro,Munro,Munro,Munro,Munro,Munro,Munro,Munro,Munro,Munro,Munro,56.97879527220022,-4.515287608309791,Laggan,14.77429857594661,57.0192779,-4.2829357
672,Carn Liath - Meall an-t-Snaim,970.0,3182.0,245902.0,790471.0,Munro Top,Munro Top,Munro Top,Munro Top,Munro Top,Munro Top,Munro Top,Munro Top,Munro Top,Munro Top,Munro Top,56.97966494598932,-4.537186728091895,Laggan,16.01555849563374,57.0192779,-4.2829357
673,Carn Liath - A' Bhuidheanach,966.0,3169.0,248102.0,790764.0,Munro Top,Munro Top,Munro Top,Munro Top,Munro Top,Munro Top,Munro Top,Munro Top,Munro Top,Munro Top,Munro Top,56.98302294277409,-4.501203352234142,Laggan,13.819204738768288,57.0192779,-4.2829357
674,Carn Liath - Stob Coire Dubh,916.0,3005.0,249631.0,791676.0,Munro Top,Munro Top,Munro Top,Munro Top,Munro Top,Munro Top,Munro Top,Munro Top,Munro Top,Munro Top,Munro Top,56.99170814723557,-4.47661332477625,Laggan,12.121651860653174,57.0192779,-4.2829357
663,Beinn a' Chaorainn,1049.1,3442.0,238605.0,785062.0,Munro Top,Munro Top,Munro Top,Munro Top,Munro Top,Munro,Munro,Munro,Munro,Munro,Munro,56.92863578522145,-4.653656069539043,Roybridge,12.136817582423795,56.8913146,-4.8415287
665,Beinn a' Chaorainn South Top,1048.5,3440.0,238639.0,784514.0,Munro,Munro,Munro,Munro,Munro,Munro Top,Munro Top,Munro Top,Munro Top,Munro Top,Munro Top,56.9237300519203,-4.652748846780791,Roybridge,12.014532489594162,56.8913146,-4.8415287
666,Beinn a' Chaorainn North Top,1042.9,3422.0,238389.0,785701.0,Munro Top,Munro Top,Munro Top,Munro Top,Munro Top,Munro Top,Munro Top,Munro Top,Munro Top,Munro Top,Munro Top,56.934294608164414,-4.6576090126979715,Roybridge,12.14436361438694,56.8913146,-4.8415287
675,Beinn Teallach,914.6,3001.0,236136.0,785973.0,Unclassified,Unclassified,Unclassified,Unclassified,Unclassified,Unclassified,Unclassified,Munro,Munro,Munro,Munro,56.93594336081607,-4.694765724898446,Roybridge,10.197649901499366,56.8913146,-4.8415287
683,Gleouraich,1035.0,3396.0,203945.0,805345.0,Munro,Munro,Munro,Munro,Munro,Munro,Munro,Munro,Munro,Munro,Munro,57.09717897916987,-5.238037599083642,Inverinate,20.99999454283633,57.2428829,-5.4596682
689,Gleouraich - Creag Coire na Fiar Bhealaich [Craig Coire na Fiar Bhealaich],1006.0,3301.0,204712.0,805111.0,Munro Top,Munro Top,Munro Top,Munro Top,Munro Top,Munro Top,Munro Top,Munro Top,Munro Top,Munro Top,Munro Top,57.095406412083136,-5.225216656802496,Inverinate,21.649137743203077,57.2428829,-5.4596682
684,Sgurr a' Mhaoraich,1027.0,3369.0,198392.0,806581.0,Munro,Munro,Munro,Munro,Munro,Munro,Munro,Munro,Munro,Munro,Munro,57.105864104777766,-5.330526006109928,Inverinate,17.109195953463022,57.2428829,-5.4596682
699,Sgurr a' Mhaoraich - Sgurr a' Mhaoraich Beag,948.0,3110.0,197723.0,806742.0,Munro Top,Munro Top,Munro Top,Munro Top,Munro Top,Munro Top,Munro Top,Munro Top,Munro Top,Munro Top,Munro Top,57.10701424800222,-5.341681109068476,Inverinate,16.698091065949313,57.2428829,-5.4596682
714,Sgurr a' Mhaoraich - Am Bathaich,899.0,2949.0,198832.0,807559.0,Munro Top,Munro Top,Munro Top,Munro Top,Munro Top,Munro Top,Munro Top,Munro Top,Munro Top,Munro Top,Munro Top,57.11482736862461,-5.324060912257845,Inverinate,16.417994124308308,57.2428829,-5.4596682
691,Spidean Mialach,996.0,3268.0,206592.0,804306.0,Munro,Munro,Munro,Munro,Munro,Munro,Munro,Munro,Munro,Munro,Munro,57.08898022998556,-5.193617500997546,Inverinate,23.455369647866235,57.2428829,-5.4596682
688,The Saddle,1011.5,3319.0,193610.0,813124.0,Munro,Munro,Munro,Munro,Munro,Munro,Munro,Munro,Munro,Munro,Munro,57.16241537428656,-5.4147317022886865,Inverinate,9.347977457255874,57.2428829,-5.4596682
686,The Saddle - Trig Point,1011.1,3317.0,193492.0,813066.0,Unclassified,Unclassified,Unclassified,Unclassified,Unclassified,Unclassified,Munro Top,Munro Top,Munro Top,Munro Top,Munro Top,57.161842220679226,-5.416631116475793,Inverinate,9.376734366934492,57.2428829,-5.4596682
706,The Saddle - Sgurr na Creige,926.9,3041.0,193501.0,813818.0,Munro Top,Munro Top,Munro Top,Munro Top,Munro Top,Munro Top,Munro Top,Munro Top,Munro Top,Munro Top,Munro Top,57.16858945518245,-5.417105286266106,Inverinate,8.649622156468793,57.2428829,-5.4596682
696,The Saddle West Top,975.6,3201.0,192910.0,812848.0,Munro Top,Munro Top,Munro Top,Munro Top,Munro Top,Munro Top,Munro Top,Munro Top,Munro Top,Munro Top,Munro Top,57.15962525751553,-5.426055045327483,Inverinate,9.476627853056836,57.2428829,-5.4596682
697,The Saddle - Sgurr na Forcan,964.6,3165.0,194025.0,813051.0,Munro Top,Munro Top,Munro Top,Munro Top,Munro Top,Munro Top,Munro Top,Munro Top,Munro Top,Munro Top,Munro Top,57.16194717126275,-5.407822339034802,Inverinate,9.526020479249594,57.2428829,-5.4596682
698,The Saddle East Top,959.0,3146.0,193847.0,813034.0,Unclassified,Unclassified,Unclassified,Unclassified,Unclassified,Munro Top,Munro Top,Munro Top,Munro Top,Munro Top,Munro Top,57.16171483134168,-5.410745924771025,Inverinate,9.494315913118498,57.2428829,-5.4596682
703,The Saddle - Spidean Dhomhuill Bhric,940.4,3085.0,192208.0,812936.0,Munro Top,Munro Top,Munro Top,Munro Top,Munro Top,Munro Top,Munro Top,Munro Top,Munro Top,Munro Top,Munro Top,57.160097153082035,-5.437712816468493,Inverinate,9.299859673964487,57.2428829,-5.4596682
707,The Saddle - Sgurr Leac nan Each,918.9,3015.0,191773.0,813312.0,Munro Top,Munro Top,Munro Top,Munro Top,Munro Top,Munro Top,Munro Top,Munro Top,Munro Top,Munro Top,Munro Top,57.16327156063131,-5.445205138863993,Inverinate,8.895134392405367,57.2428829,-5.4596682
701,Sgurr na Sgine,946.0,3104.0,194618.0,811368.0,Munro,Munro,Munro,Munro,Munro,Munro,Munro,Munro,Munro,Munro,Munro,57.14712106251677,-5.396650468725164,Inverinate,11.304752759960612,57.2428829,-5.4596682
702,Sgurr na Sgine NW Top,942.0,3091.0,194371.0,811591.0,Unclassified,Unclassified,Unclassified,Unclassified,Unclassified,Unclassified,Munro Top,Munro Top,Munro Top,Munro Top,Munro Top,57.149010233247054,-5.400908938076468,Inverinate,11.022031760515938,57.2428829,-5.4596682
711,Sgurr na Sgine - Faochag,909.0,2982.0,195467.0,812330.0,Munro Top,Munro Top,Munro Top,Munro Top,Munro Top,Munro Top,Munro Top,Munro Top,Munro Top,Munro Top,Munro Top,57.156126480545154,-5.3834324955248665,Inverinate,10.684092820753284,57.2428829,-5.4596682
700,Creag a' Mhaim,946.2,3104.0,208790.0,807772.0,Munro,Munro,Munro,Munro,Munro,Munro,Munro,Munro,Munro,Munro,Munro,57.12098651783587,-5.160052391835724,Invergarry,22.194038182833584,57.0697214,-4.8049621
692,Druim Shionnach,985.2,3232.0,207441.0,808484.0,Munro,Munro,Munro,Munro,Munro,Munro,Munro,Munro,Munro,Munro,Munro,57.12680954178032,-5.182844641029671,Inverinate,21.091502874667743,57.2428829,-5.4596682
704,Druim Shionnach West Top,935.4,3069.0,206291.0,808212.0,Unclassified,Unclassified,Unclassified,Unclassified,Unclassified,Unclassified,Unclassified,Unclassified,Unclassified,Munro Top,Munro Top,57.12388676781018,-5.2015990671969305,Inverinate,20.419069467571024,57.2428829,-5.4596682
685,Aonach air Chrith,1019.5,3345.0,205103.0,808354.0,Munro,Munro,Munro,Munro,Munro,Munro,Munro,Munro,Munro,Munro,Munro,57.12465821073089,-5.221299689947717,Inverinate,19.471892375213326,57.2428829,-5.4596682
693,Maol Chinn-dearg,980.3,3216.0,203221.0,808769.0,Munro,Munro,Munro,Munro,Munro,Munro,Munro,Munro,Munro,Munro,Munro,57.12757840194855,-5.252659966061343,Inverinate,17.888249634283763,57.2428829,-5.4596682
687,Sgurr an Doire Leathain,1010.0,3314.0,201524.0,809890.0,Munro,Munro,Munro,Munro,Munro,Munro,Munro,Munro,Munro,Munro,Munro,57.1369022319407,-5.281534696310542,Inverinate,15.939522075209767,57.2428829,-5.4596682
690,Sgurr an Lochain,1004.0,3294.0,200583.0,810428.0,Munro,Munro,Munro,Munro,Munro,Munro,Munro,Munro,Munro,Munro,Munro,57.14131966189385,-5.297485403227873,Inverinate,14.933692591766325,57.2428829,-5.4596682
708,Creag nan Damh,917.2,3009.0,198348.0,811202.0,Munro,Munro,Munro,Munro,Munro,Munro,Munro,Munro,Munro,Munro,Munro,57.147285167714195,-5.334978475088795,Inverinate,13.01622887040988,57.2428829,-5.4596682
695,Beinn Sgritheall,974.0,3196.0,183588.0,812682.0,Munro,Munro,Munro,Munro,Munro,Munro,Munro,Munro,Munro,Munro,Munro,57.153837966013924,-5.579723830520415,Glenelg,6.975315459504906,57.2124802,-5.6208263
705,Beinn Sgritheall NW Top,928.0,3045.0,183493.0,813152.0,Munro Top,Munro Top,Munro Top,Munro Top,Munro Top,Munro Top,Munro Top,Munro Top,Munro Top,Munro Top,Munro Top,57.158006944511676,-5.58169881882077,Glenelg,6.49986531688932,57.2124802,-5.6208263
730,Sgurr na Ciche,1040.2,3413.0,190220.0,796686.0,Munro,Munro,Munro,Munro,Munro,Munro,Munro,Munro,Munro,Munro,Munro,57.01348463370605,-5.456918920186148,Inverie,14.093473765565525,57.0385872,-5.6851839
732,Garbh Chioch Mhor,1012.9,3323.0,190956.0,796101.0,Munro Top,Munro Top,Munro Top,Munro Top,Munro Top,Munro Top,Munro,Munro,Munro,Munro,Munro,57.008572804742634,-5.444335701668301,Inverie,14.953962834713952,57.0385872,-5.6851839
734,Garbh Chioch Mhor - Garbh Chioch Bheag,968.3,3177.0,191804.0,795905.0,Munro Top,Munro Top,Munro Top,Munro Top,Munro Top,Munro Top,Munro Top,Munro Top,Munro Top,Munro Top,Munro Top,57.00719837578112,-5.430236670853537,Glenfinnan,15.168495750431461,56.8710714,-5.446437
736,Sgurr nan Coireachan,953.8,3129.0,193308.0,795827.0,Munro,Munro,Munro,Munro,Munro,Munro,Munro,Munro,Munro,Munro,Munro,57.00717456779234,-5.405454424784884,Glenfinnan,15.336806100820745,56.8710714,-5.446437
733,Sgurr Mor,1003.0,3291.0,196535.0,798041.0,Munro,Munro,Munro,Munro,Munro,Munro,Munro,Munro,Munro,Munro,Munro,57.02846246034646,-5.354205239350323,Glenfinnan,18.373125256766667,56.8710714,-5.446437
741,Gairich,919.0,3015.0,202589.0,799580.0,Munro,Munro,Munro,Munro,Munro,Munro,Munro,Munro,Munro,Munro,Munro,57.04489536021562,-5.255844979192363,Glenfinnan,22.519176835487357,56.8710714,-5.446437
737,Meall Buidhe,946.0,3104.0,184898.0,798977.0,Munro,Munro,Munro,Munro,Munro,Munro,Munro,Munro,Munro,Munro,Munro,57.03157693856651,-5.546347080491787,Inverie,8.436269552626738,57.0385872,-5.6851839
738,Meall Buidhe SE Top,942.0,3091.0,185261.0,798752.0,Unclassified,Unclassified,Unclassified,Unclassified,Unclassified,Unclassified,Munro Top,Munro Top,Munro Top,Munro Top,Munro Top,57.029728679591344,-5.540186053799127,Inverie,8.828288486263737,57.0385872,-5.6851839
731,Ladhar Bheinn,1020.0,3346.0,182400.0,803983.0,Munro,Munro,Munro,Munro,Munro,Munro,Munro,Munro,Munro,Munro,Munro,57.075286926346436,-5.59175702505888,Inverie,6.969112103915435,57.0385872,-5.6851839
735,Ladhar Bheinn - Stob a' Choire Odhair,960.0,3150.0,183015.0,804311.0,Munro Top,Munro Top,Munro Top,Munro Top,Munro Top,Munro Top,Munro Top,Munro Top,Munro Top,Munro Top,Munro Top,57.0785177512781,-5.581916609041165,Inverie,7.6618192322961685,57.0385872,-5.6851839
739,Luinne Bheinn,939.0,3081.0,186979.0,800740.0,Munro,Munro,Munro,Munro,Munro,Munro,Munro,Munro,Munro,Munro,Munro,57.04835000846136,-5.513621066066285,Inverie,10.4345131182876,57.0385872,-5.6851839
740,Luinne Bheinn East Top,936.0,3071.0,187252.0,800687.0,Unclassified,Unclassified,Unclassified,Unclassified,Unclassified,Unclassified,Munro Top,Munro Top,Munro Top,Munro Top,Munro Top,57.048000842955936,-5.509084954381797,Inverie,10.703636047954054,57.0385872,-5.6851839
758,Sron a' Choire Ghairbh,937.0,3074.0,222247.0,794560.0,Munro,Munro,Munro,Munro,Munro,Munro,Munro,Munro,Munro,Munro,Munro,57.00785782414221,-4.9287547363286555,Invergarry,10.16895018641465,57.0697214,-4.8049621
759,Meall na Teanga,916.8,3008.0,222023.0,792471.0,Munro Top,Munro,Munro,Munro,Munro,Munro,Munro,Munro,Munro,Munro,Munro,56.9890301536836,-4.930962897079465,Spean Bridge,10.79786819649419,56.8920582,-4.9215585
773,Gulvain [Gaor Bheinn],987.0,3238.0,200268.0,787575.0,Munro,Munro,Munro,Munro,Munro,Munro,Munro,Munro,Munro,Munro,Munro,56.93622989380862,-5.284527502121666,Blaich,11.08261485681047,56.8432336,-5.2188921
775,Gulvain South Top,961.0,3153.0,199674.0,786454.0,Munro Top,Munro Top,Munro Top,Munro Top,Munro Top,Munro Top,Munro Top,Munro Top,Munro Top,Munro Top,Munro Top,56.92591962005835,-5.293385595167732,Blaich,10.247618319232837,56.8432336,-5.2188921
